{
  "type": "FeatureCollection",
  "features": [
    {
      "type": "Feature",
      "geometry": {
        "type": "Point",
        "coordinates": [
          135.772631,
          35.028762
        ]
      },
      "properties": {
        "no": 1,
        "name": "ファミリーマート 賀茂大橋店",
        "rename": "",
        "address": "日本、〒606-8204 京都府京都市左京区田中下柳町４７",
        "year": "2011",
        "date": ""
      }
    },
    {
      "type": "Feature",
      "geometry": {
        "type": "Point",
        "coordinates": [
          135.779528,
          35.0312396
        ]
      },
      "properties": {
        "no": 2,
        "name": "ファミリーマート 百万遍店",
        "rename": "",
        "address": "日本、〒606-8225 京都府京都市左京区田中門前町２丁目２−２",
        "year": "2011",
        "date": ""
      }
    },
    {
      "type": "Feature",
      "geometry": {
        "type": "Point",
        "coordinates": [
          135.7770373,
          35.0251432
        ]
      },
      "properties": {
        "no": 3,
        "name": "ファミリーマート 麻田東一条店",
        "rename": "",
        "address": "日本、〒606-8302 京都府京都市左京区吉田牛ノ宮町１９",
        "year": "2011",
        "date": ""
      }
    },
    {
      "type": "Feature",
      "geometry": {
        "type": "Point",
        "coordinates": [
          135.768873,
          35.006438
        ]
      },
      "properties": {
        "no": 4,
        "name": "ファミリーマート 河原町蛸薬師店",
        "rename": "",
        "address": "日本、〒604-8033 京都府京都市中京区奈良屋町河原町通蛸薬師上る−２９５",
        "year": "2011",
        "date": ""
      }
    },
    {
      "type": "Feature",
      "geometry": {
        "type": "Point",
        "coordinates": [
          135.75534,
          35.010582
        ]
      },
      "properties": {
        "no": 5,
        "name": "ファミリーマート 御池西洞院店",
        "rename": "",
        "address": "日本、〒604-8277 京都府京都市中京区三坊西洞院町５７９",
        "year": "2012",
        "date": ""
      }
    },
    {
      "type": "Feature",
      "geometry": {
        "type": "Point",
        "coordinates": [
          135.747515,
          35.003415
        ]
      },
      "properties": {
        "no": 6,
        "name": "ファミリーマート 四条大宮店",
        "rename": "",
        "address": "日本、〒604-8811 京都府京都市中京区壬生賀陽御所町３−７",
        "year": "2012",
        "date": ""
      }
    },
    {
      "type": "Feature",
      "geometry": {
        "type": "Point",
        "coordinates": [
          135.762602,
          35.008475
        ]
      },
      "properties": {
        "no": 7,
        "name": "ファミリーマート 京都三条高倉店",
        "rename": "",
        "address": "日本、〒604-8111 京都府京都市中京区桝屋町５４−１",
        "year": "2012",
        "date": ""
      }
    },
    {
      "type": "Feature",
      "geometry": {
        "type": "Point",
        "coordinates": [
          135.777815,
          35.017233
        ]
      },
      "properties": {
        "no": 8,
        "name": "ファミリーマート ユアサ聖護院店",
        "rename": "",
        "address": "日本、〒606-8392 京都府京都市左京区聖護院山王町４３−５",
        "year": "2012",
        "date": ""
      }
    },
    {
      "type": "Feature",
      "geometry": {
        "type": "Point",
        "coordinates": [
          135.7429091,
          35.0087273
        ]
      },
      "properties": {
        "no": 9,
        "name": "ファミリーマート 千本三条店",
        "rename": "",
        "address": "日本、〒604-8412 京都府京都市中京区西ノ京南聖町１８−２０",
        "year": "2012",
        "date": ""
      }
    },
    {
      "type": "Feature",
      "geometry": {
        "type": "Point",
        "coordinates": [
          135.770749,
          35.004292
        ]
      },
      "properties": {
        "no": 10,
        "name": "ファミリーマート 四条木屋町北店",
        "rename": "",
        "address": "日本、〒604-8015 京都府京都市中京区鍋屋町木屋町通四条上る−２２２",
        "year": "2012",
        "date": ""
      }
    },
    {
      "type": "Feature",
      "geometry": {
        "type": "Point",
        "coordinates": [
          135.7633534,
          35.0104914
        ]
      },
      "properties": {
        "no": 11,
        "name": "ファミリーマート 京都堺町御池店",
        "rename": "",
        "address": "日本、〒604-8106 京都府京都市中京区丸木材木町６７０−１ 吉岡御池ビル",
        "year": "2012",
        "date": ""
      }
    },
    {
      "type": "Feature",
      "geometry": {
        "type": "Point",
        "coordinates": [
          135.7592911,
          35.0146114
        ]
      },
      "properties": {
        "no": 12,
        "name": "ファミリーマート 中徳烏丸二条店",
        "rename": "",
        "address": "日本、〒604-0857 京都府京都市中京区蒔絵屋町烏丸通二条上る−２５７",
        "year": "2012",
        "date": ""
      }
    },
    {
      "type": "Feature",
      "geometry": {
        "type": "Point",
        "coordinates": [
          135.742835,
          35.0159675
        ]
      },
      "properties": {
        "no": 13,
        "name": "ファミリーマート 二条聚楽町店",
        "rename": "",
        "address": "日本、〒602-8156 京都府京都市上京区聚楽町千本通竹屋町下る−８６３−５２",
        "year": "2012",
        "date": ""
      }
    },
    {
      "type": "Feature",
      "geometry": {
        "type": "Point",
        "coordinates": [
          135.767043,
          35.013553
        ]
      },
      "properties": {
        "no": 14,
        "name": "ファミリーマート 寺町二条店",
        "rename": "",
        "address": "日本、〒604-0932 京都府京都市中京区妙満寺前町４４４",
        "year": "2012",
        "date": ""
      }
    },
    {
      "type": "Feature",
      "geometry": {
        "type": "Point",
        "coordinates": [
          135.754945,
          35.003509
        ]
      },
      "properties": {
        "no": 15,
        "name": "ファミリーマート 四条西洞院店",
        "rename": "",
        "address": "日本、〒600-8472 京都府京都市下京区妙伝寺町６８９",
        "year": "2012",
        "date": ""
      }
    },
    {
      "type": "Feature",
      "geometry": {
        "type": "Point",
        "coordinates": [
          135.7506271,
          35.0174844
        ]
      },
      "properties": {
        "no": 16,
        "name": "ファミリーマート 丸太町猪熊店",
        "rename": "",
        "address": "日本、〒602-8148 京都府京都市上京区丸太町通猪熊東入西丸太町１８５",
        "year": "2012",
        "date": ""
      }
    },
    {
      "type": "Feature",
      "geometry": {
        "type": "Point",
        "coordinates": [
          135.7590435,
          35.0289153
        ]
      },
      "properties": {
        "no": 17,
        "name": "ファミリーマート 烏丸今出川店",
        "rename": "",
        "address": "日本、〒602-0033 京都府京都市上京区今出川町３３１",
        "year": "2012",
        "date": ""
      }
    },
    {
      "type": "Feature",
      "geometry": {
        "type": "Point",
        "coordinates": [
          135.7594191,
          34.9987703
        ]
      },
      "properties": {
        "no": 18,
        "name": "ファミリーマート 京都烏丸松原店",
        "rename": "",
        "address": "日本、〒600-8427 京都府京都市下京区玉津島町松原通烏丸西入３１６−２",
        "year": "2012",
        "date": ""
      }
    },
    {
      "type": "Feature",
      "geometry": {
        "type": "Point",
        "coordinates": [
          135.7584676,
          35.0039343
        ]
      },
      "properties": {
        "no": 19,
        "name": "ファミリーマート 四条室町店",
        "rename": "",
        "address": "日本、〒600-8009 京都府京都市下京区函谷鉾町８３ 第3田源ビル 京都市下京区四条烏丸西入",
        "year": "2012",
        "date": ""
      }
    },
    {
      "type": "Feature",
      "geometry": {
        "type": "Point",
        "coordinates": [
          135.759945,
          35.007457
        ]
      },
      "properties": {
        "no": 20,
        "name": "ファミリーマート 烏丸六角店",
        "rename": "",
        "address": "日本、〒604-8134 京都府京都市中京区堂之前町２５４",
        "year": "2012",
        "date": ""
      }
    },
    {
      "type": "Feature",
      "geometry": {
        "type": "Point",
        "coordinates": [
          135.768162,
          35.0106241
        ]
      },
      "properties": {
        "no": 21,
        "name": "ファミリーマート 河原町御池店",
        "rename": "ファミリーマート 本能寺店",
        "address": "日本、〒604-8091 京都府京都市中京区下本能寺前町 河原町御池",
        "year": "2012",
        "date": ""
      }
    },
    {
      "type": "Feature",
      "geometry": {
        "type": "Point",
        "coordinates": [
          135.7322661,
          35.0008866
        ]
      },
      "properties": {
        "no": 22,
        "name": "ファミリーマート 西大路西院店",
        "rename": "",
        "address": "日本、〒615-0022 京都府京都市右京区西院平町１１",
        "year": "2012",
        "date": ""
      }
    },
    {
      "type": "Feature",
      "geometry": {
        "type": "Point",
        "coordinates": [
          135.7706793,
          35.003326
        ]
      },
      "properties": {
        "no": 23,
        "name": "ファミリーマート 四条木屋町南店",
        "rename": "",
        "address": "日本、〒600-8012 京都府京都市下京区斎藤町１１９",
        "year": "2012",
        "date": ""
      }
    },
    {
      "type": "Feature",
      "geometry": {
        "type": "Point",
        "coordinates": [
          135.7524132,
          35.0003307
        ]
      },
      "properties": {
        "no": 24,
        "name": "ファミリーマート 堀川高辻店",
        "rename": "",
        "address": "日本、〒600-8484 京都府京都市下京区西高辻町１９７",
        "year": "2012",
        "date": ""
      }
    },
    {
      "type": "Feature",
      "geometry": {
        "type": "Point",
        "coordinates": [
          135.7565472,
          35.0002077
        ]
      },
      "properties": {
        "no": 25,
        "name": "ファミリーマート 新町高辻店",
        "rename": "",
        "address": "日本、〒600-8445 京都府京都市下京区岩戸山町４４０",
        "year": "2012",
        "date": ""
      }
    },
    {
      "type": "Feature",
      "geometry": {
        "type": "Point",
        "coordinates": [
          135.7426785,
          35.0284525
        ]
      },
      "properties": {
        "no": 26,
        "name": "ファミリーマート 千本笹屋町店",
        "rename": "",
        "address": "日本、〒602-8464 京都府京都市上京区元四丁目４０４",
        "year": "2012",
        "date": ""
      }
    },
    {
      "type": "Feature",
      "geometry": {
        "type": "Point",
        "coordinates": [
          135.751527,
          35.025238
        ]
      },
      "properties": {
        "no": 27,
        "name": "ファミリーマート 堀川中立売店",
        "rename": "",
        "address": "日本、〒602-8241 京都府京都市上京区役人町１３０",
        "year": "2012",
        "date": ""
      }
    },
    {
      "type": "Feature",
      "geometry": {
        "type": "Point",
        "coordinates": [
          135.7541205,
          35.0295266
        ]
      },
      "properties": {
        "no": 28,
        "name": "ファミリーマート 京都今出川針屋町店",
        "rename": "",
        "address": "日本、〒602-0948 京都府京都市上京区針屋町小川通今出川下る−３５４",
        "year": "2012",
        "date": ""
      }
    },
    {
      "type": "Feature",
      "geometry": {
        "type": "Point",
        "coordinates": [
          135.76681,
          35.008834
        ]
      },
      "properties": {
        "no": 29,
        "name": "ファミリーマート 三条御幸町店",
        "rename": "ファミリーマート 三条寺町店",
        "address": "日本、〒604-8082 京都府京都市中京区弁慶石町三条通麩屋町東入６３ 林ビル",
        "year": "2012",
        "date": ""
      }
    },
    {
      "type": "Feature",
      "geometry": {
        "type": "Point",
        "coordinates": [
          135.7612568,
          35.0035364
        ]
      },
      "properties": {
        "no": 30,
        "name": "ファミリーマート 四条高倉店",
        "rename": "",
        "address": "日本、〒600-8007 京都府京都市下京区立売西町６２ ファミリーマート四条高倉店",
        "year": "2012",
        "date": ""
      }
    },
    {
      "type": "Feature",
      "geometry": {
        "type": "Point",
        "coordinates": [
          135.7692484,
          35.0276127
        ]
      },
      "properties": {
        "no": 31,
        "name": "ファミリーマート 河原町今出川店",
        "rename": "",
        "address": "日本、〒602-0842 京都府京都市上京区栄町河原町通石薬師上る−３６５",
        "year": "2012",
        "date": ""
      }
    },
    {
      "type": "Feature",
      "geometry": {
        "type": "Point",
        "coordinates": [
          135.7699872,
          35.0304697
        ]
      },
      "properties": {
        "no": 32,
        "name": "ファミリーマート 出町店",
        "rename": "",
        "address": "日本、〒602-0822 京都府京都市上京区青龍町２２５",
        "year": "2012",
        "date": ""
      }
    },
    {
      "type": "Feature",
      "geometry": {
        "type": "Point",
        "coordinates": [
          135.7394269,
          35.037494
        ]
      },
      "properties": {
        "no": 33,
        "name": "ファミリーマート 千本鞍馬口店",
        "rename": "",
        "address": "日本、〒603-8303 京都府京都市北区紫野十二坊町３１ ファミリーマート千本鞍馬口店",
        "year": "2012",
        "date": ""
      }
    },
    {
      "type": "Feature",
      "geometry": {
        "type": "Point",
        "coordinates": [
          135.862993,
          35.011302
        ]
      },
      "properties": {
        "no": 34,
        "name": "ファミリーマート 浜大津駅前店",
        "rename": "ファミリーマート びわこ浜大津駅前店",
        "address": "日本、〒520-0047 滋賀県大津市浜大津２丁目１−２８ ファミリーマート浜大津駅前店",
        "year": "2012",
        "date": ""
      }
    },
    {
      "type": "Feature",
      "geometry": {
        "type": "Point",
        "coordinates": [
          137.9058282,
          35.7111779
        ]
      },
      "properties": {
        "no": 35,
        "name": "ファミリーマート 駒ケ岳ＳＡ上り店",
        "rename": "",
        "address": "日本、〒399-4117 長野県駒ヶ根市赤穂 大徳原15-160 駒ケ岳SA上り フォレストガーデン",
        "year": "2012",
        "date": ""
      }
    },
    {
      "type": "Feature",
      "geometry": {
        "type": "Point",
        "coordinates": [
          135.760976,
          35.004448
        ]
      },
      "properties": {
        "no": 36,
        "name": "ファミリーマート 四条東洞院店",
        "rename": "",
        "address": "日本、〒604-8143 京都府京都市中京区阪東屋町６６４−１",
        "year": "2012",
        "date": ""
      }
    },
    {
      "type": "Feature",
      "geometry": {
        "type": "Point",
        "coordinates": [
          135.769441,
          35.0051933
        ]
      },
      "properties": {
        "no": 37,
        "name": "ファミリーマート 四条河原町店",
        "rename": "",
        "address": "日本、〒604-8025 京都府京都市中京区下大阪町３４９−６",
        "year": "2012",
        "date": ""
      }
    },
    {
      "type": "Feature",
      "geometry": {
        "type": "Point",
        "coordinates": [
          135.7331943,
          34.9787298
        ]
      },
      "properties": {
        "no": 38,
        "name": "ファミリーマート 西大路九条店",
        "rename": "",
        "address": "日本、〒601-8329 京都府京都市南区吉祥院清水町３８",
        "year": "2012",
        "date": ""
      }
    },
    {
      "type": "Feature",
      "geometry": {
        "type": "Point",
        "coordinates": [
          135.7404237,
          34.97845
        ]
      },
      "properties": {
        "no": 39,
        "name": "ファミリーマート 唐橋羅城門町店",
        "rename": "",
        "address": "日本、〒601-8453 京都府京都市南区唐橋羅城門町１３−４",
        "year": "2012",
        "date": ""
      }
    },
    {
      "type": "Feature",
      "geometry": {
        "type": "Point",
        "coordinates": [
          135.7770743,
          34.9993191
        ]
      },
      "properties": {
        "no": 40,
        "name": "ファミリーマート 東郷東山安井店",
        "rename": "",
        "address": "日本、〒605-0823 京都府京都市東山区下弁天町５２",
        "year": "2012",
        "date": ""
      }
    },
    {
      "type": "Feature",
      "geometry": {
        "type": "Point",
        "coordinates": [
          135.7449734,
          35.0405947
        ]
      },
      "properties": {
        "no": 41,
        "name": "ファミリーマート わたなべ紫野店",
        "rename": "",
        "address": "日本、〒603-8232 京都府京都市北区紫野東野町２４",
        "year": "2012",
        "date": ""
      }
    },
    {
      "type": "Feature",
      "geometry": {
        "type": "Point",
        "coordinates": [
          135.7530829,
          35.0226901
        ]
      },
      "properties": {
        "no": 42,
        "name": "ファミリーマート 長者亀屋町店",
        "rename": "",
        "address": "日本、〒602-8062 京都府京都市上京区亀屋町１５２−１",
        "year": "2012",
        "date": ""
      }
    },
    {
      "type": "Feature",
      "geometry": {
        "type": "Point",
        "coordinates": [
          135.7667975,
          35.0025737
        ]
      },
      "properties": {
        "no": 43,
        "name": "ファミリーマート 寺町綾小路店",
        "rename": "",
        "address": "日本、〒600-8038 京都府京都市下京区綾小路通寺町西入足袋屋町３３２−１",
        "year": "2012",
        "date": ""
      }
    },
    {
      "type": "Feature",
      "geometry": {
        "type": "Point",
        "coordinates": [
          135.748572,
          35.0352146
        ]
      },
      "properties": {
        "no": 44,
        "name": "ファミリーマート 薬ヒグチ西陣北店",
        "rename": "",
        "address": "日本、〒602-0093 京都府京都市上京区仲之町４８３",
        "year": "2012",
        "date": ""
      }
    },
    {
      "type": "Feature",
      "geometry": {
        "type": "Point",
        "coordinates": [
          135.7469419,
          35.0219547
        ]
      },
      "properties": {
        "no": 45,
        "name": "ファミリーマート 智恵光院下長者町店",
        "rename": "",
        "address": "日本、〒602-8172 京都府京都市上京区智恵光院通出水上る天秤丸町１８２",
        "year": "2012",
        "date": ""
      }
    },
    {
      "type": "Feature",
      "geometry": {
        "type": "Point",
        "coordinates": [
          135.7612986,
          35.0011674
        ]
      },
      "properties": {
        "no": 46,
        "name": "ファミリーマート 綾小路東洞院店",
        "rename": "",
        "address": "日本、〒600-8096 京都府京都市下京区高橋町６０８",
        "year": "2012",
        "date": ""
      }
    },
    {
      "type": "Feature",
      "geometry": {
        "type": "Point",
        "coordinates": [
          135.765836,
          34.995623
        ]
      },
      "properties": {
        "no": 47,
        "name": "ファミリーマート 河原町五条店",
        "rename": "",
        "address": "日本、〒600-8119 京都府京都市下京区本塩竈町５５８−８",
        "year": "2012",
        "date": ""
      }
    },
    {
      "type": "Feature",
      "geometry": {
        "type": "Point",
        "coordinates": [
          135.7579393,
          35.0021194
        ]
      },
      "properties": {
        "no": 48,
        "name": "ファミリーマート 綾小路室町店",
        "rename": "",
        "address": "日本、〒600-8422 京都府京都市下京区白楽天町５０９",
        "year": "2012",
        "date": ""
      }
    },
    {
      "type": "Feature",
      "geometry": {
        "type": "Point",
        "coordinates": [
          135.755049,
          35.038364
        ]
      },
      "properties": {
        "no": 49,
        "name": "ファミリーマート 紫明通店",
        "rename": "",
        "address": "日本、〒603-8156 京都府京都市北区小山中溝町３１",
        "year": "2012",
        "date": ""
      }
    },
    {
      "type": "Feature",
      "geometry": {
        "type": "Point",
        "coordinates": [
          135.7043036,
          34.8846694
        ]
      },
      "properties": {
        "no": 50,
        "name": "ファミリーマート 八幡千束店",
        "rename": "",
        "address": "日本、〒614-8003 京都府八幡市八幡千束１８",
        "year": "2012",
        "date": ""
      }
    },
    {
      "type": "Feature",
      "geometry": {
        "type": "Point",
        "coordinates": [
          135.7708801,
          35.0482584
        ]
      },
      "properties": {
        "no": 51,
        "name": "ファミリーマート 下鴨北園町店",
        "rename": "",
        "address": "日本、〒606-0831 京都府京都市左京区下鴨北園町７１−１１",
        "year": "2012",
        "date": ""
      }
    },
    {
      "type": "Feature",
      "geometry": {
        "type": "Point",
        "coordinates": [
          135.7683468,
          35.0110489
        ]
      },
      "properties": {
        "no": 52,
        "name": "ファミリーマート ゼスト御池店",
        "rename": "",
        "address": "日本、〒604-8091 京都府京都市中京区下本能寺前町 京都市役所前駅",
        "year": "2012",
        "date": ""
      }
    },
    {
      "type": "Feature",
      "geometry": {
        "type": "Point",
        "coordinates": [
          135.7377364,
          35.0034729
        ]
      },
      "properties": {
        "no": 53,
        "name": "ファミリーマート 四条西新道店",
        "rename": "",
        "address": "日本、〒604-8831 京都府京都市中京区壬生森前町１０−５",
        "year": "2012",
        "date": ""
      }
    },
    {
      "type": "Feature",
      "geometry": {
        "type": "Point",
        "coordinates": [
          135.778133,
          35.008045
        ]
      },
      "properties": {
        "no": 54,
        "name": "ファミリーマート 塚本祇園東山店",
        "rename": "",
        "address": "日本、〒605-0016 京都府京都市東山区進之町５８４",
        "year": "2012",
        "date": ""
      }
    },
    {
      "type": "Feature",
      "geometry": {
        "type": "Point",
        "coordinates": [
          135.495452,
          34.6992881
        ]
      },
      "properties": {
        "no": 55,
        "name": "ファミリーマート 西梅田店",
        "rename": "",
        "address": "日本、〒530-0001 大阪府大阪市北区梅田２丁目１−１８",
        "year": "2012",
        "date": ""
      }
    },
    {
      "type": "Feature",
      "geometry": {
        "type": "Point",
        "coordinates": [
          135.757358,
          34.984675
        ]
      },
      "properties": {
        "no": 56,
        "name": "ファミリーマート 近鉄京都駅店",
        "rename": "",
        "address": "日本、〒600-8215 京都府京都市下京区東塩小路釜殿町３１",
        "year": "2012",
        "date": ""
      }
    },
    {
      "type": "Feature",
      "geometry": {
        "type": "Point",
        "coordinates": [
          135.5144265,
          34.6471486
        ]
      },
      "properties": {
        "no": 57,
        "name": "ファミリーマート 天王寺駅南店",
        "rename": "",
        "address": "日本、〒543-0055 大阪府大阪市天王寺区悲田院町１０−４８ 天王寺ミオプラザ館",
        "year": "2013",
        "date": ""
      }
    },
    {
      "type": "Feature",
      "geometry": {
        "type": "Point",
        "coordinates": [
          135.4731521,
          34.609032
        ]
      },
      "properties": {
        "no": 58,
        "name": "ファミリーマート 住之江公園駅南店",
        "rename": "",
        "address": "日本、〒559-0023 大阪府大阪市住之江区泉１丁目１−５２",
        "year": "2013",
        "date": ""
      }
    },
    {
      "type": "Feature",
      "geometry": {
        "type": "Point",
        "coordinates": [
          135.4973325,
          34.6822251
        ]
      },
      "properties": {
        "no": 59,
        "name": "ファミリーマート 本町駅南店",
        "rename": "",
        "address": "日本、〒541-0055 大阪府大阪市中央区船場中央４丁目１−６ 本町駅",
        "year": "2013",
        "date": ""
      }
    },
    {
      "type": "Feature",
      "geometry": {
        "type": "Point",
        "coordinates": [
          135.498618,
          34.73304
        ]
      },
      "properties": {
        "no": 60,
        "name": "ファミリーマート 地下鉄新大阪駅ナカ店",
        "rename": "",
        "address": "日本、〒532-0011 大阪府大阪市淀川区西中島５丁目１６ 新大阪駅",
        "year": "2013",
        "date": ""
      }
    },
    {
      "type": "Feature",
      "geometry": {
        "type": "Point",
        "coordinates": [
          135.4999949,
          34.6818839
        ]
      },
      "properties": {
        "no": 61,
        "name": "ファミリーマート 本町駅ホーム店",
        "rename": "",
        "address": "日本、〒541-0055 大阪府大阪市中央区船場中央４丁目１−６ 本町駅",
        "year": "2013",
        "date": ""
      }
    },
    {
      "type": "Feature",
      "geometry": {
        "type": "Point",
        "coordinates": [
          135.7692221,
          35.0094893
        ]
      },
      "properties": {
        "no": 62,
        "name": "ファミリーマート 河原町三条店",
        "rename": "",
        "address": "日本、〒604-8005 京都府京都市中京区恵比須町 三条上る恵比須町427",
        "year": "2013",
        "date": ""
      }
    },
    {
      "type": "Feature",
      "geometry": {
        "type": "Point",
        "coordinates": [
          135.7364494,
          35.0106853
        ]
      },
      "properties": {
        "no": 63,
        "name": "ファミリーマート 京都御池御前店",
        "rename": "",
        "address": "日本、〒604-8423 京都府京都市中京区西ノ京西月光町６−１",
        "year": "2013",
        "date": ""
      }
    },
    {
      "type": "Feature",
      "geometry": {
        "type": "Point",
        "coordinates": [
          135.7365062,
          35.0145461
        ]
      },
      "properties": {
        "no": 64,
        "name": "ファミリーマート 京都御前太子道店",
        "rename": "",
        "address": "日本、〒604-8492 京都府京都市中京区西ノ京右馬寮町１０−１",
        "year": "2013",
        "date": ""
      }
    },
    {
      "type": "Feature",
      "geometry": {
        "type": "Point",
        "coordinates": [
          135.688353,
          35.000711
        ]
      },
      "properties": {
        "no": 65,
        "name": "ファミリーマート 松尾大社前店",
        "rename": "",
        "address": "日本、〒616-0023 京都府京都市西京区嵐山宮ノ前町１０３",
        "year": "2013",
        "date": ""
      }
    },
    {
      "type": "Feature",
      "geometry": {
        "type": "Point",
        "coordinates": [
          135.7692114,
          35.0320641
        ]
      },
      "properties": {
        "no": 66,
        "name": "ファミリーマート 葵橋西詰店",
        "rename": "",
        "address": "日本、〒603-8136 京都府京都市北区出雲路神楽町２２−９",
        "year": "2013",
        "date": ""
      }
    },
    {
      "type": "Feature",
      "geometry": {
        "type": "Point",
        "coordinates": [
          135.4957404,
          34.7052502
        ]
      },
      "properties": {
        "no": 67,
        "name": "ファミリーマート 北梅田店",
        "rename": "",
        "address": "日本、〒530-0012 大阪府大阪市北区芝田２丁目３−２３",
        "year": "2013",
        "date": ""
      }
    },
    {
      "type": "Feature",
      "geometry": {
        "type": "Point",
        "coordinates": [
          135.2094607,
          34.6697666
        ]
      },
      "properties": {
        "no": 68,
        "name": "ファミリーマート みなとじま駅前店",
        "rename": "",
        "address": "日本、〒650-0046 兵庫県神戸市中央区港島中町４丁目６−２",
        "year": "2013",
        "date": ""
      }
    },
    {
      "type": "Feature",
      "geometry": {
        "type": "Point",
        "coordinates": [
          135.767096,
          35.005792
        ]
      },
      "properties": {
        "no": 69,
        "name": "ファミリーマート 新京極蛸薬師店",
        "rename": "",
        "address": "日本、〒604-8046 京都府京都市中京区東側町５０８",
        "year": "2013",
        "date": ""
      }
    },
    {
      "type": "Feature",
      "geometry": {
        "type": "Point",
        "coordinates": [
          136.2020776,
          35.8251968
        ]
      },
      "properties": {
        "no": 70,
        "name": "ファミリーマート 南条ＳＡ下り店",
        "rename": "",
        "address": "日本、〒919-0204 福井県南条郡南越前町上野７８−８",
        "year": "2013",
        "date": ""
      }
    },
    {
      "type": "Feature",
      "geometry": {
        "type": "Point",
        "coordinates": [
          136.2854314,
          35.2188564
        ]
      },
      "properties": {
        "no": 71,
        "name": "ファミリーマート ＥＸＰＡＳＡ多賀下り店",
        "rename": "",
        "address": "日本、〒522-0342 滋賀県犬上郡多賀町敏満寺６６−３６",
        "year": "2013",
        "date": ""
      }
    },
    {
      "type": "Feature",
      "geometry": {
        "type": "Point",
        "coordinates": [
          135.7358668,
          35.0234711
        ]
      },
      "properties": {
        "no": 72,
        "name": "ファミリーマート とみた御前通仁和店",
        "rename": "",
        "address": "日本、〒602-8361 京都府京都市上京区御前通下立売上る三丁目西上之町２４８",
        "year": "2013",
        "date": ""
      }
    },
    {
      "type": "Feature",
      "geometry": {
        "type": "Point",
        "coordinates": [
          135.7297071,
          35.0155838
        ]
      },
      "properties": {
        "no": 73,
        "name": "ファミリーマート 佐井太子道店",
        "rename": "",
        "address": "日本、〒604-8472 京都府京都市中京区西ノ京北壺井町３０−１",
        "year": "2013",
        "date": ""
      }
    },
    {
      "type": "Feature",
      "geometry": {
        "type": "Point",
        "coordinates": [
          135.7470411,
          35.0251907
        ]
      },
      "properties": {
        "no": 74,
        "name": "ファミリーマート 中立売智恵光院店",
        "rename": "",
        "address": "日本、〒602-8261 京都府京都市上京区多門町４４５",
        "year": "2013",
        "date": ""
      }
    },
    {
      "type": "Feature",
      "geometry": {
        "type": "Point",
        "coordinates": [
          135.7201302,
          34.9877889
        ]
      },
      "properties": {
        "no": 75,
        "name": "ファミリーマート かどの七条店",
        "rename": "",
        "address": "日本、〒615-0827 京都府京都市右京区西京極南方町７０",
        "year": "2013",
        "date": ""
      }
    },
    {
      "type": "Feature",
      "geometry": {
        "type": "Point",
        "coordinates": [
          135.500699,
          34.663252
        ]
      },
      "properties": {
        "no": 76,
        "name": "ファミリーマート 難波中店",
        "rename": "",
        "address": "日本、〒556-0011 大阪府大阪市浪速区難波中１丁目１８−１６",
        "year": "2014",
        "date": ""
      }
    },
    {
      "type": "Feature",
      "geometry": {
        "type": "Point",
        "coordinates": [
          135.501593,
          34.678064
        ]
      },
      "properties": {
        "no": 77,
        "name": "ファミリーマート 博労町三丁目店",
        "rename": "",
        "address": "日本、〒541-0059 大阪府大阪市中央区博労町３丁目３−１",
        "year": "2014",
        "date": ""
      }
    },
    {
      "type": "Feature",
      "geometry": {
        "type": "Point",
        "coordinates": [
          135.5745569,
          34.8166717
        ]
      },
      "properties": {
        "no": 78,
        "name": "ファミリーマート 茨木別院町店",
        "rename": "",
        "address": "日本、〒567-0817 大阪府茨木市別院町４−１",
        "year": "2014",
        "date": ""
      }
    },
    {
      "type": "Feature",
      "geometry": {
        "type": "Point",
        "coordinates": [
          135.5578108,
          34.6794419
        ]
      },
      "properties": {
        "no": 79,
        "name": "ファミリーマート 深江橋駅前店",
        "rename": "",
        "address": "日本、〒536-0022 大阪府大阪市城東区永田４丁目１７",
        "year": "2014",
        "date": ""
      }
    },
    {
      "type": "Feature",
      "geometry": {
        "type": "Point",
        "coordinates": [
          135.7502561,
          35.0034619
        ]
      },
      "properties": {
        "no": 80,
        "name": "ファミリーマート 四条猪熊店",
        "rename": "",
        "address": "日本、〒600-8490 京都府京都市下京区四条通大宮東入立中町５０２",
        "year": "2014",
        "date": ""
      }
    },
    {
      "type": "Feature",
      "geometry": {
        "type": "Point",
        "coordinates": [
          135.499146,
          34.708014
        ]
      },
      "properties": {
        "no": 81,
        "name": "ファミリーマート 茶屋町北店",
        "rename": "",
        "address": "日本、〒530-0013 大阪府大阪市北区茶屋町１５−３０ ファミリーマート茶屋町北店",
        "year": "2014",
        "date": ""
      }
    },
    {
      "type": "Feature",
      "geometry": {
        "type": "Point",
        "coordinates": [
          135.732686,
          34.994923
        ]
      },
      "properties": {
        "no": 82,
        "name": "ファミリーマート 西大路五条店",
        "rename": "",
        "address": "日本、〒615-0042 京都府京都市右京区西院東中水町１３−１",
        "year": "2014",
        "date": ""
      }
    },
    {
      "type": "Feature",
      "geometry": {
        "type": "Point",
        "coordinates": [
          135.5492935,
          34.6209999
        ]
      },
      "properties": {
        "no": 83,
        "name": "ファミリーマート 地下鉄平野駅前店",
        "rename": "",
        "address": "日本、〒547-0044 大阪府大阪市平野区平野本町２丁目１０−２５",
        "year": "2014",
        "date": ""
      }
    },
    {
      "type": "Feature",
      "geometry": {
        "type": "Point",
        "coordinates": [
          135.5257186,
          34.7423024
        ]
      },
      "properties": {
        "no": 84,
        "name": "ファミリーマート 東淀川豊新店",
        "rename": "",
        "address": "日本、〒533-0014 大阪府大阪市東淀川区豊新２丁目１３−２",
        "year": "2014",
        "date": ""
      }
    },
    {
      "type": "Feature",
      "geometry": {
        "type": "Point",
        "coordinates": [
          135.5490806,
          34.7229257
        ]
      },
      "properties": {
        "no": 85,
        "name": "ファミリーマート スバル森小路店",
        "rename": "",
        "address": "日本、〒535-0013 大阪府大阪市旭区森小路２丁目１−１１",
        "year": "2014",
        "date": ""
      }
    },
    {
      "type": "Feature",
      "geometry": {
        "type": "Point",
        "coordinates": [
          135.7599619,
          34.9878756
        ]
      },
      "properties": {
        "no": 86,
        "name": "ファミリーマート 京都タワー前店",
        "rename": "",
        "address": "日本、〒600-8216 京都府京都市下京区東塩小路町７３０",
        "year": "2014",
        "date": ""
      }
    },
    {
      "type": "Feature",
      "geometry": {
        "type": "Point",
        "coordinates": [
          135.7578638,
          34.9847726
        ]
      },
      "properties": {
        "no": 87,
        "name": "ファミリーマート 近鉄京都駅３番ホーム前店",
        "rename": "",
        "address": "日本、〒600-8215 京都府京都市下京区東塩小路釜殿町１９",
        "year": "2014",
        "date": ""
      }
    },
    {
      "type": "Feature",
      "geometry": {
        "type": "Point",
        "coordinates": [
          135.7629439,
          35.0034954
        ]
      },
      "properties": {
        "no": 88,
        "name": "ファミリーマート 四条堺町店",
        "rename": "",
        "address": "日本、〒600-8006 京都府京都市下京区立売中之町四条通高倉東入８９",
        "year": "2015",
        "date": ""
      }
    },
    {
      "type": "Feature",
      "geometry": {
        "type": "Point",
        "coordinates": [
          135.742242,
          34.930597
        ]
      },
      "properties": {
        "no": 89,
        "name": "ファミリーマート 伏見横大路店",
        "rename": "",
        "address": "日本、〒612-8292 京都府京都市伏見区横大路朱雀１１−１",
        "year": "2015",
        "date": ""
      }
    },
    {
      "type": "Feature",
      "geometry": {
        "type": "Point",
        "coordinates": [
          135.5014411,
          34.6619013
        ]
      },
      "properties": {
        "no": 90,
        "name": "ファミマ!! 小浦なんばパークス店",
        "rename": "",
        "address": "日本、〒556-0011 大阪府大阪市浪速区難波中２丁目１０−７０ ザ・なんばタワーレジデンス・イン・なんばパークス",
        "year": "2015",
        "date": ""
      }
    },
    {
      "type": "Feature",
      "geometry": {
        "type": "Point",
        "coordinates": [
          139.7344167,
          35.6054111
        ]
      },
      "properties": {
        "no": 91,
        "name": "ファミリーマート 阪急大井町ガーデン店",
        "rename": "",
        "address": "日本、〒140-0014 東京都品川区大井１丁目５０−５",
        "year": "2015",
        "date": ""
      }
    },
    {
      "type": "Feature",
      "geometry": {
        "type": "Point",
        "coordinates": [
          139.7812508,
          35.6252911
        ]
      },
      "properties": {
        "no": 92,
        "name": "ファミリーマート ヴィーナスフォート店",
        "rename": "",
        "address": "日本、〒135-0064 東京都江東区青海１丁目３−１５",
        "year": "2015",
        "date": ""
      }
    },
    {
      "type": "Feature",
      "geometry": {
        "type": "Point",
        "coordinates": [
          139.7693944,
          35.6807822
        ]
      },
      "properties": {
        "no": 93,
        "name": "ファミリーマート 八重洲地下街店",
        "rename": "",
        "address": "日本、〒100-0005 東京都千代田区丸の内１丁目９ 東京駅",
        "year": "2015",
        "date": ""
      }
    },
    {
      "type": "Feature",
      "geometry": {
        "type": "Point",
        "coordinates": [
          135.5060132,
          34.6963916
        ]
      },
      "properties": {
        "no": 94,
        "name": "ファミリーマート 西天満四丁目店",
        "rename": "",
        "address": "日本、〒530-0047 大阪府大阪市北区西天満４丁目２−１",
        "year": "2015",
        "date": "2015-06-12"
      }
    },
    {
      "type": "Feature",
      "geometry": {
        "type": "Point",
        "coordinates": [
          136.5906495,
          35.0192021
        ]
      },
      "properties": {
        "no": 95,
        "name": "ファミリーマート ＥＸＰＡＳＡ御在所上り店",
        "rename": "",
        "address": "日本、〒512-0906 三重県四日市市山之一色町１５６９−２",
        "year": "2015",
        "date": ""
      }
    },
    {
      "type": "Feature",
      "geometry": {
        "type": "Point",
        "coordinates": [
          135.77326,
          35.009298
        ]
      },
      "properties": {
        "no": 96,
        "name": "ファミリーマート 京阪三条店",
        "rename": "",
        "address": "日本、〒605-0009 京都府京都市東山区大橋町１０４−１",
        "year": "2015",
        "date": "2015-07-31"
      }
    },
    {
      "type": "Feature",
      "geometry": {
        "type": "Point",
        "coordinates": [
          136.2646053,
          35.3773566
        ]
      },
      "properties": {
        "no": 97,
        "name": "ファミリーマート 長浜豊公園前店",
        "rename": "",
        "address": "日本、〒526-0065 滋賀県長浜市公園町８−５７",
        "year": "2015",
        "date": ""
      }
    },
    {
      "type": "Feature",
      "geometry": {
        "type": "Point",
        "coordinates": [
          139.784567,
          35.7201454
        ]
      },
      "properties": {
        "no": 98,
        "name": "ファミリーマート 台東入谷駅前店",
        "rename": "",
        "address": "日本、〒110-0013 東京都台東区入谷１丁目６−６",
        "year": "2015",
        "date": "2015-08-13"
      }
    },
    {
      "type": "Feature",
      "geometry": {
        "type": "Point",
        "coordinates": [
          139.791795,
          35.711541
        ]
      },
      "properties": {
        "no": 99,
        "name": "ファミリーマート 西浅草一丁目店",
        "rename": "",
        "address": "日本、〒111-0035 東京都台東区西浅草１丁目８−１３",
        "year": "2015",
        "date": "2015-08-13"
      }
    },
    {
      "type": "Feature",
      "geometry": {
        "type": "Point",
        "coordinates": [
          139.010973,
          36.322689
        ]
      },
      "properties": {
        "no": 100,
        "name": "ファミリーマート 高崎駅西口店",
        "rename": "",
        "address": "日本、〒370-0849 群馬県高崎市八島町２４−２",
        "year": "2015",
        "date": "2015-08-15"
      }
    },
    {
      "type": "Feature",
      "geometry": {
        "type": "Point",
        "coordinates": [
          139.625762,
          35.905287
        ]
      },
      "properties": {
        "no": 101,
        "name": "ファミリーマート 大宮仲町一丁目店",
        "rename": "",
        "address": "日本、〒330-0845 埼玉県さいたま市大宮区仲町１丁目５３",
        "year": "2015",
        "date": "2015-08-15"
      }
    },
    {
      "type": "Feature",
      "geometry": {
        "type": "Point",
        "coordinates": [
          139.77441,
          35.7091211
        ]
      },
      "properties": {
        "no": 102,
        "name": "ファミリーマート 上野センターモール店",
        "rename": "",
        "address": "日本、〒110-0005 東京都台東区上野４丁目７−２",
        "year": "2015",
        "date": "2015-08-15"
      }
    },
    {
      "type": "Feature",
      "geometry": {
        "type": "Point",
        "coordinates": [
          139.7966261,
          35.6313832
        ]
      },
      "properties": {
        "no": 103,
        "name": "ファミリーマート Ｂ．Ｓガレリア店",
        "rename": "",
        "address": "日本、〒135-0063 東京都江東区有明３丁目１０−１ 東京ビッグサイト東展示棟ガレリア",
        "year": "2015",
        "date": "2015-08-16"
      }
    },
    {
      "type": "Feature",
      "geometry": {
        "type": "Point",
        "coordinates": [
          139.7574485,
          35.695351
        ]
      },
      "properties": {
        "no": 104,
        "name": "ファミリーマート 神保町さくら通り店",
        "rename": "",
        "address": "日本、〒101-0051 東京都千代田区神田神保町２丁目１３−１",
        "year": "2015",
        "date": "2015-08-16"
      }
    },
    {
      "type": "Feature",
      "geometry": {
        "type": "Point",
        "coordinates": [
          139.7009122,
          35.6569325
        ]
      },
      "properties": {
        "no": 105,
        "name": "ファミリーマート 渋谷桜丘町店",
        "rename": "",
        "address": "日本、〒150-0031 東京都渋谷区桜丘町２４−１",
        "year": "2015",
        "date": "2015-08-16"
      }
    },
    {
      "type": "Feature",
      "geometry": {
        "type": "Point",
        "coordinates": [
          139.5441477,
          35.6508433
        ]
      },
      "properties": {
        "no": 106,
        "name": "ファミリーマート 調布駅南口店",
        "rename": "",
        "address": "日本、〒182-0024 東京都調布市布田４丁目１６−１",
        "year": "2015",
        "date": ""
      }
    },
    {
      "type": "Feature",
      "geometry": {
        "type": "Point",
        "coordinates": [
          139.5304019,
          35.656729
        ]
      },
      "properties": {
        "no": 107,
        "name": "ファミリーマート 西調布駅前店",
        "rename": "",
        "address": "日本、〒182-0035 東京都調布市上石原２丁目３３−２",
        "year": "2015",
        "date": "2015-08-17"
      }
    },
    {
      "type": "Feature",
      "geometry": {
        "type": "Point",
        "coordinates": [
          139.07821,
          35.102837
        ]
      },
      "properties": {
        "no": 108,
        "name": "ファミリーマート 熱海駅前店",
        "rename": "",
        "address": "日本、〒413-0011 静岡県熱海市田原本町８−６",
        "year": "2015",
        "date": "2015-08-18"
      }
    },
    {
      "type": "Feature",
      "geometry": {
        "type": "Point",
        "coordinates": [
          136.8833744,
          35.1696626
        ]
      },
      "properties": {
        "no": 109,
        "name": "ファミリーマート 近鉄名古屋駅１番ホーム前店",
        "rename": "",
        "address": "日本、〒450-0002 愛知県名古屋市中村区名駅１丁目１ 名古屋駅広小路口（バス）",
        "year": "2015",
        "date": "2015-09-07"
      }
    },
    {
      "type": "Feature",
      "geometry": {
        "type": "Point",
        "coordinates": [
          136.6269058,
          34.9613131
        ]
      },
      "properties": {
        "no": 110,
        "name": "ファミリーマート ＪＲ四日市駅前店",
        "rename": "",
        "address": "日本、〒510-0061 三重県四日市市朝日町６−６",
        "year": "2015",
        "date": "2015-09-08"
      }
    },
    {
      "type": "Feature",
      "geometry": {
        "type": "Point",
        "coordinates": [
          135.9526546,
          35.0277824
        ]
      },
      "properties": {
        "no": 111,
        "name": "ファミリーマート 草津野村六丁目店",
        "rename": "",
        "address": "日本、〒525-0027 滋賀県草津市野村６丁目３−１７",
        "year": "2015",
        "date": "2015-09-10"
      }
    },
    {
      "type": "Feature",
      "geometry": {
        "type": "Point",
        "coordinates": [
          135.509997,
          34.764227
        ]
      },
      "properties": {
        "no": 112,
        "name": "ファミリーマート 豊津駅前店",
        "rename": "",
        "address": "日本、〒564-0073 大阪府吹田市山手町２丁目６−３",
        "year": "2015",
        "date": "2015-10-04"
      }
    },
    {
      "type": "Feature",
      "geometry": {
        "type": "Point",
        "coordinates": [
          135.7633077,
          34.9632709
        ]
      },
      "properties": {
        "no": 113,
        "name": "ファミリーマート 竹田久保町店",
        "rename": "",
        "address": "日本、〒612-8403 京都府京都市伏見区深草ヲカヤ町２９ 2F",
        "year": "2015",
        "date": "2015-12-08"
      }
    },
    {
      "type": "Feature",
      "geometry": {
        "type": "Point",
        "coordinates": [
          135.2514469,
          35.3008786
        ]
      },
      "properties": {
        "no": 114,
        "name": "ファミリーマート 綾部駅前通店",
        "rename": "",
        "address": "日本、〒623-0066 京都府綾部市駅前通３９−２",
        "year": "2015",
        "date": "2015-12-23"
      }
    },
    {
      "type": "Feature",
      "geometry": {
        "type": "Point",
        "coordinates": [
          135.496621,
          34.698123
        ]
      },
      "properties": {
        "no": 115,
        "name": "ファミリーマート 小浦北新地店",
        "rename": "",
        "address": "日本、〒530-0002 大阪府大阪市北区曾根崎新地１丁目４−２１ 加州大阪ビルディング 3F",
        "year": "2015",
        "date": "2015-12-23"
      }
    },
    {
      "type": "Feature",
      "geometry": {
        "type": "Point",
        "coordinates": [
          137.9515846,
          36.143953
        ]
      },
      "properties": {
        "no": 116,
        "name": "ファミリーマート 塩尻金塚店",
        "rename": "",
        "address": "日本、〒399-0702 長野県塩尻市広丘野村１０２６−１",
        "year": "2015",
        "date": "2015-12-29"
      }
    },
    {
      "type": "Feature",
      "geometry": {
        "type": "Point",
        "coordinates": [
          140.4766779,
          36.371279
        ]
      },
      "properties": {
        "no": 117,
        "name": "ファミリーマート 水戸駅北口店",
        "rename": "",
        "address": "日本、〒310-0015 茨城県水戸市宮町１丁目１−２−４",
        "year": "2015",
        "date": "2015-12-30"
      }
    },
    {
      "type": "Feature",
      "geometry": {
        "type": "Point",
        "coordinates": [
          139.7890196,
          35.7184313
        ]
      },
      "properties": {
        "no": 118,
        "name": "ファミリーマート 入谷二丁目店",
        "rename": "",
        "address": "日本、〒110-0013 東京都台東区入谷２丁目１−８",
        "year": "2015",
        "date": "2015-12-30"
      }
    },
    {
      "type": "Feature",
      "geometry": {
        "type": "Point",
        "coordinates": [
          135.6190337,
          34.8516571
        ]
      },
      "properties": {
        "no": 119,
        "name": "ファミリーマート 高槻グリーンプラザ店",
        "rename": "",
        "address": "日本、〒569-0804 大阪府高槻市紺屋町１−１ グリーンプラザたかつき１号館",
        "year": "2016",
        "date": "2016-01-25"
      }
    },
    {
      "type": "Feature",
      "geometry": {
        "type": "Point",
        "coordinates": [
          135.4388382,
          34.6215178
        ]
      },
      "properties": {
        "no": 120,
        "name": "ファミリーマート 南港トラックターミナル店",
        "rename": "",
        "address": "日本、〒559-0031 大阪府大阪市住之江区南港東４丁目１０−１０８",
        "year": "2016",
        "date": "2016-02-14"
      }
    },
    {
      "type": "Feature",
      "geometry": {
        "type": "Point",
        "coordinates": [
          130.8822545,
          33.8867229
        ]
      },
      "properties": {
        "no": 121,
        "name": "ファミリーマート ＪＲ小倉駅改札口店",
        "rename": "",
        "address": "日本、〒802-0001 福岡県北九州市小倉北区浅野１丁目１−１",
        "year": "2016",
        "date": "2016-02-15"
      }
    },
    {
      "type": "Feature",
      "geometry": {
        "type": "Point",
        "coordinates": [
          130.4210695,
          33.5905244
        ]
      },
      "properties": {
        "no": 122,
        "name": "ファミリーマート 博多駅中央通路店",
        "rename": "",
        "address": "日本、〒812-0012 福岡県福岡市博多区博多駅中央街１−１ ５Ｆ",
        "year": "2016",
        "date": ""
      }
    },
    {
      "type": "Feature",
      "geometry": {
        "type": "Point",
        "coordinates": [
          129.7259389,
          33.1638899
        ]
      },
      "properties": {
        "no": 123,
        "name": "ファミリーマート ＪＲ佐世保駅店",
        "rename": "",
        "address": "日本、〒857-0863 長崎県佐世保市三浦町２１−１",
        "year": "2016",
        "date": ""
      }
    },
    {
      "type": "Feature",
      "geometry": {
        "type": "Point",
        "coordinates": [
          129.8745411,
          32.7426059
        ]
      },
      "properties": {
        "no": 124,
        "name": "ファミリーマート 長崎出島店",
        "rename": "",
        "address": "日本、〒850-0862 長崎県長崎市出島町１５−７",
        "year": "2016",
        "date": "2016-02-17"
      }
    },
    {
      "type": "Feature",
      "geometry": {
        "type": "Point",
        "coordinates": [
          129.8694969,
          32.7359127
        ]
      },
      "properties": {
        "no": 125,
        "name": "ファミリーマート 長崎グラバー通り店",
        "rename": "",
        "address": "日本、〒850-0931 長崎県長崎市南山手町２−３３",
        "year": "2016",
        "date": "2016-02-17"
      }
    },
    {
      "type": "Feature",
      "geometry": {
        "type": "Point",
        "coordinates": [
          129.8715195,
          32.7517602
        ]
      },
      "properties": {
        "no": 126,
        "name": "ファミリーマート ＪＲ長崎駅店",
        "rename": "",
        "address": "日本、〒850-0058 長崎県長崎市尾上町１−１",
        "year": "2016",
        "date": ""
      }
    },
    {
      "type": "Feature",
      "geometry": {
        "type": "Point",
        "coordinates": [
          130.822487,
          33.89288
        ]
      },
      "properties": {
        "no": 127,
        "name": "ファミリーマート 戸畑沖台二丁目店",
        "rename": "",
        "address": "日本、〒804-0064 福岡県北九州市戸畑区沖台２丁目８−１８",
        "year": "2016",
        "date": ""
      }
    },
    {
      "type": "Feature",
      "geometry": {
        "type": "Point",
        "coordinates": [
          130.6894302,
          32.790161
        ]
      },
      "properties": {
        "no": 128,
        "name": "ファミリーマート ＪＲ熊本駅店",
        "rename": "",
        "address": "日本、〒860-0047 熊本県熊本市西区春日３丁目１５",
        "year": "2016",
        "date": "2016-02-18"
      }
    },
    {
      "type": "Feature",
      "geometry": {
        "type": "Point",
        "coordinates": [
          130.4215355,
          33.5903032
        ]
      },
      "properties": {
        "no": 129,
        "name": "ファミリーマート メトロ博多筑紫口店",
        "rename": "",
        "address": "日本、〒812-0012 福岡県福岡市博多区博多駅中央街１ 地下鉄博多駅(筑紫口)構内 ファミリーマートメトロ博多筑紫口店",
        "year": "2016",
        "date": ""
      }
    },
    {
      "type": "Feature",
      "geometry": {
        "type": "Point",
        "coordinates": [
          130.4213425,
          33.5903953
        ]
      },
      "properties": {
        "no": 130,
        "name": "ファミリーマート 博多駅中央改札口店",
        "rename": "",
        "address": "日本、〒812-0012 福岡県福岡市博多区博多駅中央街１−１",
        "year": "2016",
        "date": ""
      }
    },
    {
      "type": "Feature",
      "geometry": {
        "type": "Point",
        "coordinates": [
          130.820851,
          33.897002
        ]
      },
      "properties": {
        "no": 131,
        "name": "ファミリーマート ＪＲ戸畑駅店",
        "rename": "",
        "address": "日本、〒804-0067 福岡県北九州市戸畑区汐井町１−１",
        "year": "2016",
        "date": "2016-02-19"
      }
    },
    {
      "type": "Feature",
      "geometry": {
        "type": "Point",
        "coordinates": [
          130.8823425,
          33.8877673
        ]
      },
      "properties": {
        "no": 132,
        "name": "ファミリーマート 小倉駅新幹線口店",
        "rename": "",
        "address": "日本、〒802-0001 福岡県北九州市小倉北区浅野１丁目２ ＪＲ九州小倉駅北口ビル",
        "year": "2016",
        "date": "2016-02-20"
      }
    },
    {
      "type": "Feature",
      "geometry": {
        "type": "Point",
        "coordinates": [
          136.0609051,
          35.4581561
        ]
      },
      "properties": {
        "no": 133,
        "name": "ファミリーマート 高木浜一丁目店",
        "rename": "",
        "address": "日本、〒520-1813 滋賀県高島市マキノ町高木浜１丁目９−２",
        "year": "2016",
        "date": "2016-02-22"
      }
    },
    {
      "type": "Feature",
      "geometry": {
        "type": "Point",
        "coordinates": [
          135.194122,
          34.692785
        ]
      },
      "properties": {
        "no": 134,
        "name": "ファミリーマート 三宮店",
        "rename": "",
        "address": "日本、〒650-0021 兵庫県神戸市中央区三宮町１丁目７−１９ 北星ビル 4F 5F",
        "year": "2016",
        "date": "2016-02-29"
      }
    },
    {
      "type": "Feature",
      "geometry": {
        "type": "Point",
        "coordinates": [
          135.1954208,
          34.6917428
        ]
      },
      "properties": {
        "no": 135,
        "name": "ファミリーマート Ｕライン三宮花時計前駅売店",
        "rename": "",
        "address": "日本、〒651-0087 兵庫県神戸市中央区御幸通８丁目１−３１７",
        "year": "2016",
        "date": ""
      }
    },
    {
      "type": "Feature",
      "geometry": {
        "type": "Point",
        "coordinates": [
          133.0657014,
          35.4632133
        ]
      },
      "properties": {
        "no": 136,
        "name": "ファミリーマート 松江東朝日町店",
        "rename": "",
        "address": "日本、〒690-0001 島根県松江市東朝日町８８−５",
        "year": "2016",
        "date": "2016-03-01"
      }
    },
    {
      "type": "Feature",
      "geometry": {
        "type": "Point",
        "coordinates": [
          133.849009,
          35.451441
        ]
      },
      "properties": {
        "no": 137,
        "name": "ファミリーマート 倉吉駅前通り店",
        "rename": "",
        "address": "日本、〒682-0023 鳥取県倉吉市山根６２０−１",
        "year": "2016",
        "date": "2016-03-02"
      }
    },
    {
      "type": "Feature",
      "geometry": {
        "type": "Point",
        "coordinates": [
          135.347969,
          34.739849
        ]
      },
      "properties": {
        "no": 138,
        "name": "ファミリーマート ＪＲ西宮駅北口店",
        "rename": "",
        "address": "日本、〒662-0844 兵庫県西宮市西福町６−１",
        "year": "2016",
        "date": "2016-03-10"
      }
    },
    {
      "type": "Feature",
      "geometry": {
        "type": "Point",
        "coordinates": [
          135.3472895,
          34.7384034
        ]
      },
      "properties": {
        "no": 139,
        "name": "ファミリーマート ＪＲ西宮駅南店",
        "rename": "",
        "address": "日本、〒662-0911 兵庫県西宮市池田町９−７",
        "year": "2016",
        "date": "2016-03-10"
      }
    },
    {
      "type": "Feature",
      "geometry": {
        "type": "Point",
        "coordinates": [
          135.3407939,
          34.7365024
        ]
      },
      "properties": {
        "no": 140,
        "name": "ファミリーマート 阪神西宮駅東店",
        "rename": "",
        "address": "日本、〒662-0918 兵庫県西宮市六湛寺町１１−１７",
        "year": "2016",
        "date": "2016-03-10"
      }
    },
    {
      "type": "Feature",
      "geometry": {
        "type": "Point",
        "coordinates": [
          140.8798586,
          38.2594497
        ]
      },
      "properties": {
        "no": 141,
        "name": "ファミリーマート 仙台駅前店",
        "rename": "",
        "address": "日本、〒980-0021 宮城県仙台市青葉区中央１丁目１０−１０ 仙台駅",
        "year": "2016",
        "date": "2016-03-23"
      }
    },
    {
      "type": "Feature",
      "geometry": {
        "type": "Point",
        "coordinates": [
          140.8786632,
          38.2614484
        ]
      },
      "properties": {
        "no": 142,
        "name": "ファミリーマート 仙台中央二丁目店",
        "rename": "",
        "address": "日本、〒980-0021 宮城県仙台市青葉区中央２丁目１−３０ ファミリーマート仙台中央二丁目店",
        "year": "2016",
        "date": "2016-03-23"
      }
    },
    {
      "type": "Feature",
      "geometry": {
        "type": "Point",
        "coordinates": [
          141.49048,
          40.50818
        ]
      },
      "properties": {
        "no": 143,
        "name": "ファミリーマート 八戸十六日町店",
        "rename": "",
        "address": "日本、〒031-0043 青森県八戸市十六日町２５−１",
        "year": "2016",
        "date": "2016-03-24"
      }
    },
    {
      "type": "Feature",
      "geometry": {
        "type": "Point",
        "coordinates": [
          141.490035,
          40.509543
        ]
      },
      "properties": {
        "no": 144,
        "name": "ファミリーマート 八戸三日町店",
        "rename": "",
        "address": "日本、〒031-0032 青森県八戸市三日町５",
        "year": "2016",
        "date": "2016-03-24"
      }
    },
    {
      "type": "Feature",
      "geometry": {
        "type": "Point",
        "coordinates": [
          140.8804523,
          38.2601495
        ]
      },
      "properties": {
        "no": 145,
        "name": "ファミリーマート 仙台駅店",
        "rename": "",
        "address": "日本、〒980-0021 宮城県仙台市青葉区中央１丁目１０−１０",
        "year": "2016",
        "date": "2016-03-24"
      }
    },
    {
      "type": "Feature",
      "geometry": {
        "type": "Point",
        "coordinates": [
          140.872192,
          38.262838
        ]
      },
      "properties": {
        "no": 146,
        "name": "ファミリーマート 広瀬通一番町店",
        "rename": "",
        "address": "日本、〒980-0811 宮城県仙台市青葉区一番町４丁目２−２",
        "year": "2016",
        "date": "2016-03-24"
      }
    },
    {
      "type": "Feature",
      "geometry": {
        "type": "Point",
        "coordinates": [
          140.871645,
          38.260852
        ]
      },
      "properties": {
        "no": 147,
        "name": "ファミリーマート 一番町三丁目店",
        "rename": "",
        "address": "日本、〒980-0811 宮城県仙台市青葉区一番町３丁目４−番26号",
        "year": "2016",
        "date": "2016-03-24"
      }
    },
    {
      "type": "Feature",
      "geometry": {
        "type": "Point",
        "coordinates": [
          140.884201,
          38.276089
        ]
      },
      "properties": {
        "no": 148,
        "name": "ファミリーマート 宮町四丁目店",
        "rename": "",
        "address": "日本、〒980-0004 宮城県仙台市青葉区宮町４丁目６−２４",
        "year": "2016",
        "date": "2016-03-24"
      }
    },
    {
      "type": "Feature",
      "geometry": {
        "type": "Point",
        "coordinates": [
          140.329356,
          38.248
        ]
      },
      "properties": {
        "no": 149,
        "name": "ファミリーマート 山形駅東口店",
        "rename": "",
        "address": "日本、〒990-0039 山形県山形市香澄町１丁目３−１４",
        "year": "2016",
        "date": "2016-03-25"
      }
    },
    {
      "type": "Feature",
      "geometry": {
        "type": "Point",
        "coordinates": [
          139.7909,
          35.717482
        ]
      },
      "properties": {
        "no": 150,
        "name": "ファミリーマート 西浅草三丁目店",
        "rename": "",
        "address": "日本、〒111-0035 東京都台東区西浅草３丁目２９−２２",
        "year": "2016",
        "date": "2016-03-25"
      }
    },
    {
      "type": "Feature",
      "geometry": {
        "type": "Point",
        "coordinates": [
          135.386922,
          33.730315
        ]
      },
      "properties": {
        "no": 151,
        "name": "ファミリーマート 田辺つぶり坂店",
        "rename": "",
        "address": "日本、〒646-0031 和歌山県田辺市湊４９−７６０−３",
        "year": "2016",
        "date": "2016-04-04"
      }
    },
    {
      "type": "Feature",
      "geometry": {
        "type": "Point",
        "coordinates": [
          134.689133,
          34.828734
        ]
      },
      "properties": {
        "no": 152,
        "name": "ファミリーマート 山陽姫路駅前店",
        "rename": "",
        "address": "日本、〒670-0912 兵庫県姫路市南町５ ファミリーマート山陽姫路駅前店",
        "year": "2016",
        "date": "2016-04-05"
      }
    },
    {
      "type": "Feature",
      "geometry": {
        "type": "Point",
        "coordinates": [
          134.691727,
          34.8295542
        ]
      },
      "properties": {
        "no": 153,
        "name": "ファミリーマート 姫路みゆき通店",
        "rename": "",
        "address": "日本、〒670-0927 兵庫県姫路市駅前町３４１",
        "year": "2016",
        "date": "2016-04-05"
      }
    },
    {
      "type": "Feature",
      "geometry": {
        "type": "Point",
        "coordinates": [
          135.9411633,
          34.9633608
        ]
      },
      "properties": {
        "no": 154,
        "name": "ファミリーマート 龍谷大学店",
        "rename": "",
        "address": "日本、〒520-2123 滋賀県大津市瀬田大江町１−５",
        "year": "2016",
        "date": "2016-04-12"
      }
    },
    {
      "type": "Feature",
      "geometry": {
        "type": "Point",
        "coordinates": [
          136.1088789,
          34.6265795
        ]
      },
      "properties": {
        "no": 155,
        "name": "ファミリーマート 名張鴻之台店",
        "rename": "",
        "address": "日本、〒518-0701 三重県名張市鴻之台１番町１８８",
        "year": "2016",
        "date": "2016-04-13"
      }
    },
    {
      "type": "Feature",
      "geometry": {
        "type": "Point",
        "coordinates": [
          135.5048054,
          34.6615545
        ]
      },
      "properties": {
        "no": 156,
        "name": "ファミリーマート 難波中二丁目店",
        "rename": "",
        "address": "日本、〒556-0011 大阪府大阪市浪速区難波中２丁目５−８",
        "year": "2016",
        "date": "2016-05-01"
      }
    },
    {
      "type": "Feature",
      "geometry": {
        "type": "Point",
        "coordinates": [
          135.7500768,
          34.6969076
        ]
      },
      "properties": {
        "no": 157,
        "name": "ファミリーマート 近鉄学園前駅２番ホーム中央店",
        "rename": "",
        "address": "日本、〒631-0034 奈良県奈良市学園南３丁目１−２",
        "year": "2016",
        "date": "2016-05-04"
      }
    },
    {
      "type": "Feature",
      "geometry": {
        "type": "Point",
        "coordinates": [
          135.1786015,
          34.6787528
        ]
      },
      "properties": {
        "no": 158,
        "name": "ファミリーマート ハーバーランド駅店",
        "rename": "",
        "address": "日本、〒650-0044 兵庫県神戸市中央区東川崎町１丁目２ ハーバーランド駅",
        "year": "2016",
        "date": "2016-05-04"
      }
    },
    {
      "type": "Feature",
      "geometry": {
        "type": "Point",
        "coordinates": [
          135.5002676,
          34.6649797
        ]
      },
      "properties": {
        "no": 159,
        "name": "ファミリーマート なんば駅南店",
        "rename": "",
        "address": "日本、〒542-0076 大阪府大阪市中央区難波５丁目３−８−１５",
        "year": "2016",
        "date": "2016-05-05"
      }
    },
    {
      "type": "Feature",
      "geometry": {
        "type": "Point",
        "coordinates": [
          135.5324861,
          34.6217056
        ]
      },
      "properties": {
        "no": 160,
        "name": "ファミリーマート 駒川中野駅西店",
        "rename": "",
        "address": "日本、〒546-0011 大阪府大阪市東住吉区針中野１丁目１−１",
        "year": "2016",
        "date": "2016-05-08"
      }
    },
    {
      "type": "Feature",
      "geometry": {
        "type": "Point",
        "coordinates": [
          135.5140349,
          34.6456366
        ]
      },
      "properties": {
        "no": 161,
        "name": "ファミリーマート 近鉄阿部野橋駅西改札内店",
        "rename": "",
        "address": "日本、〒545-0052 大阪府大阪市阿倍野区阿倍野筋１丁目１−４３",
        "year": "2016",
        "date": "2016-05-08"
      }
    },
    {
      "type": "Feature",
      "geometry": {
        "type": "Point",
        "coordinates": [
          135.487403,
          34.694071
        ]
      },
      "properties": {
        "no": 162,
        "name": "ファミリーマート 福島二丁目店",
        "rename": "",
        "address": "日本、〒553-0003 大阪府大阪市福島区福島２丁目２−２４",
        "year": "2016",
        "date": "2016-05-08"
      }
    },
    {
      "type": "Feature",
      "geometry": {
        "type": "Point",
        "coordinates": [
          135.226672,
          34.708171
        ]
      },
      "properties": {
        "no": 163,
        "name": "ファミリーマート ナダ萬灘南通店",
        "rename": "",
        "address": "日本、〒657-0841 兵庫県神戸市灘区灘南通４丁目２−１８",
        "year": "2016",
        "date": "2016-07-06"
      }
    },
    {
      "type": "Feature",
      "geometry": {
        "type": "Point",
        "coordinates": [
          135.2531,
          34.724727
        ]
      },
      "properties": {
        "no": 164,
        "name": "ファミリーマート 阪急御影駅前店",
        "rename": "",
        "address": "日本、〒658-0047 兵庫県神戸市東灘区御影２丁目１−２",
        "year": "2016",
        "date": "2016-07-06"
      }
    },
    {
      "type": "Feature",
      "geometry": {
        "type": "Point",
        "coordinates": [
          135.406232,
          34.721215
        ]
      },
      "properties": {
        "no": 165,
        "name": "ファミリーマート イノウエ竹谷店",
        "rename": "",
        "address": "日本、〒660-0885 兵庫県尼崎市神田南通４丁目１０１−１",
        "year": "2016",
        "date": "2016-07-06"
      }
    },
    {
      "type": "Feature",
      "geometry": {
        "type": "Point",
        "coordinates": [
          135.783842,
          34.799364
        ]
      },
      "properties": {
        "no": 166,
        "name": "ファミリーマート 京田辺三山木店",
        "rename": "",
        "address": "日本、〒610-0313 京都府京田辺市三山木田中８丁目４",
        "year": "2016",
        "date": "2016-07-10"
      }
    },
    {
      "type": "Feature",
      "geometry": {
        "type": "Point",
        "coordinates": [
          135.7726014,
          34.8207088
        ]
      },
      "properties": {
        "no": 167,
        "name": "ファミリーマート 近鉄新田辺駅前店",
        "rename": "",
        "address": "日本、〒610-0334 京都府京田辺市田辺中央１丁目 新田辺駅（バス）",
        "year": "2016",
        "date": "2016-07-10"
      }
    },
    {
      "type": "Feature",
      "geometry": {
        "type": "Point",
        "coordinates": [
          136.1177316,
          35.0012139
        ]
      },
      "properties": {
        "no": 168,
        "name": "ファミリーマート 湖南岩根店",
        "rename": "",
        "address": "日本、〒520-3254 滋賀県湖南市岩根中央２丁目１６",
        "year": "2016",
        "date": "2016-07-29"
      }
    },
    {
      "type": "Feature",
      "geometry": {
        "type": "Point",
        "coordinates": [
          135.491166,
          34.704239
        ]
      },
      "properties": {
        "no": 169,
        "name": "ファミリーマート 新梅田スカイビル前店",
        "rename": "",
        "address": "日本、〒531-0071 大阪府大阪市北区中津５丁目１−１",
        "year": "2016",
        "date": "2016-08-06"
      }
    },
    {
      "type": "Feature",
      "geometry": {
        "type": "Point",
        "coordinates": [
          135.8822695,
          34.9989663
        ]
      },
      "properties": {
        "no": 170,
        "name": "ファミリーマート 大津膳所駅前店",
        "rename": "",
        "address": "日本、〒520-0802 滋賀県大津市馬場３丁目１−１ ファミリーマート大津膳所駅前店",
        "year": "2016",
        "date": "2016-08-08"
      }
    },
    {
      "type": "Feature",
      "geometry": {
        "type": "Point",
        "coordinates": [
          139.657597,
          35.8590358
        ]
      },
      "properties": {
        "no": 171,
        "name": "ファミリーマート 浦和東口駅前店",
        "rename": "",
        "address": "日本、〒330-0056 埼玉県さいたま市浦和区東仲町１−２３ レンタルスペースホーリィ3F",
        "year": "2016",
        "date": "2016-08-10"
      }
    },
    {
      "type": "Feature",
      "geometry": {
        "type": "Point",
        "coordinates": [
          139.7812602,
          35.7218223
        ]
      },
      "properties": {
        "no": 172,
        "name": "ファミリーマート 根岸うぐいす通り店",
        "rename": "",
        "address": "日本、〒110-0003 東京都台東区根岸３丁目３−１",
        "year": "2016",
        "date": "2016-08-13"
      }
    },
    {
      "type": "Feature",
      "geometry": {
        "type": "Point",
        "coordinates": [
          139.488181,
          35.337207
        ]
      },
      "properties": {
        "no": 173,
        "name": "ファミリーマート かしわや南藤沢店",
        "rename": "",
        "address": "日本、〒251-0055 神奈川県藤沢市南藤沢２０−２０",
        "year": "2016",
        "date": "2016-08-14"
      }
    },
    {
      "type": "Feature",
      "geometry": {
        "type": "Point",
        "coordinates": [
          138.6661409,
          35.1642353
        ]
      },
      "properties": {
        "no": 174,
        "name": "ファミリーマート 富士日乃出町店",
        "rename": "",
        "address": "日本、〒417-0056 静岡県富士市日乃出町１２６−１",
        "year": "2016",
        "date": "2016-08-14"
      }
    },
    {
      "type": "Feature",
      "geometry": {
        "type": "Point",
        "coordinates": [
          138.549704,
          35.63095
        ]
      },
      "properties": {
        "no": 175,
        "name": "ファミリーマート 昭和国母店",
        "rename": "",
        "address": "日本、〒409-3866 山梨県中巨摩郡昭和町西条４１９−２",
        "year": "2016",
        "date": "2016-08-15"
      }
    },
    {
      "type": "Feature",
      "geometry": {
        "type": "Point",
        "coordinates": [
          135.555344,
          34.724155
        ]
      },
      "properties": {
        "no": 176,
        "name": "ファミリーマート スバル京阪千林店",
        "rename": "",
        "address": "日本、〒535-0021 大阪府大阪市旭区清水１丁目１８−１８",
        "year": "2016",
        "date": "2016-08-18"
      }
    },
    {
      "type": "Feature",
      "geometry": {
        "type": "Point",
        "coordinates": [
          135.684442,
          34.775698
        ]
      },
      "properties": {
        "no": 177,
        "name": "ファミリーマート かわちいわふね店",
        "rename": "",
        "address": "日本、〒576-0033 大阪府交野市私市１丁目１−１０ 河内磐船貸事務所１階",
        "year": "2016",
        "date": "2016-08-18"
      }
    },
    {
      "type": "Feature",
      "geometry": {
        "type": "Point",
        "coordinates": [
          139.7713859,
          35.6817136
        ]
      },
      "properties": {
        "no": 178,
        "name": "ファミリーマート 八重洲一丁目店",
        "rename": "",
        "address": "日本、〒103-0028 東京都中央区八重洲１丁目５−９ 加藤ビルデイング 9F",
        "year": "2016",
        "date": "2016-08-23"
      }
    },
    {
      "type": "Feature",
      "geometry": {
        "type": "Point",
        "coordinates": [
          139.4828359,
          35.9114812
        ]
      },
      "properties": {
        "no": 179,
        "name": "ファミリーマート 川越クレアモール店",
        "rename": "",
        "address": "日本、〒350-0043 埼玉県川越市新富町２丁目１２−８",
        "year": "2016",
        "date": "2016-08-25"
      }
    },
    {
      "type": "Feature",
      "geometry": {
        "type": "Point",
        "coordinates": [
          135.4983124,
          34.7075639
        ]
      },
      "properties": {
        "no": 180,
        "name": "ファミリーマート Ｋ２茶屋町西店",
        "rename": "",
        "address": "日本、〒530-0013 大阪府大阪市北区茶屋町１３−６",
        "year": "2016",
        "date": ""
      }
    },
    {
      "type": "Feature",
      "geometry": {
        "type": "Point",
        "coordinates": [
          135.4995476,
          34.7045367
        ]
      },
      "properties": {
        "no": 181,
        "name": "ファミリーマート 梅田OPA店",
        "rename": "ファミリーマート ABC-MART梅田ビル店",
        "address": "日本、〒530-0013 大阪府大阪市北区茶屋町１−２７",
        "year": "2016",
        "date": ""
      }
    },
    {
      "type": "Feature",
      "geometry": {
        "type": "Point",
        "coordinates": [
          133.8117814,
          34.1990427
        ]
      },
      "properties": {
        "no": 182,
        "name": "ファミリーマート 善通寺大麻町店",
        "rename": "",
        "address": "日本、〒765-0052 香川県善通寺市大麻町３８４",
        "year": "2016",
        "date": "2016-08-28"
      }
    },
    {
      "type": "Feature",
      "geometry": {
        "type": "Point",
        "coordinates": [
          133.539144,
          33.560754
        ]
      },
      "properties": {
        "no": 183,
        "name": "ファミリーマート 高知帯屋町店",
        "rename": "",
        "address": "日本、〒780-0841 高知県高知市帯屋町１丁目１４−１",
        "year": "2016",
        "date": "2016-08-28"
      }
    },
    {
      "type": "Feature",
      "geometry": {
        "type": "Point",
        "coordinates": [
          133.549661,
          33.5443922
        ]
      },
      "properties": {
        "no": 184,
        "name": "ファミリーマート 高知桟橋通店",
        "rename": "",
        "address": "日本、〒781-8010 高知県高知市桟橋通４丁目１５−１",
        "year": "2016",
        "date": "2016-08-28"
      }
    },
    {
      "type": "Feature",
      "geometry": {
        "type": "Point",
        "coordinates": [
          133.5554035,
          33.5600495
        ]
      },
      "properties": {
        "no": 185,
        "name": "ファミリーマート 高知日の出町店",
        "rename": "",
        "address": "日本、〒781-0804 高知県高知市日の出町２−２",
        "year": "2016",
        "date": "2016-08-28"
      }
    },
    {
      "type": "Feature",
      "geometry": {
        "type": "Point",
        "coordinates": [
          141.343631,
          43.043575
        ]
      },
      "properties": {
        "no": 186,
        "name": "ファミリーマート 札幌南１２条店",
        "rename": "",
        "address": "日本、〒064-0912 北海道札幌市中央区南１２条西１０丁目３−１８",
        "year": "2016",
        "date": "2016-08-31"
      }
    },
    {
      "type": "Feature",
      "geometry": {
        "type": "Point",
        "coordinates": [
          141.3494781,
          43.0568839
        ]
      },
      "properties": {
        "no": 187,
        "name": "ファミリーマート 札幌狸小路６丁目店",
        "rename": "",
        "address": "日本、〒060-0062 北海道札幌市中央区南２条西６丁目３",
        "year": "2016",
        "date": "2016-08-31"
      }
    },
    {
      "type": "Feature",
      "geometry": {
        "type": "Point",
        "coordinates": [
          141.3538696,
          43.0546273
        ]
      },
      "properties": {
        "no": 188,
        "name": "ファミリーマート 札幌すすきの店",
        "rename": "",
        "address": "日本、〒064-0805 北海道札幌市中央区南５条西３丁目１１−１",
        "year": "2016",
        "date": "2016-08-31"
      }
    },
    {
      "type": "Feature",
      "geometry": {
        "type": "Point",
        "coordinates": [
          141.3507824,
          43.0585684
        ]
      },
      "properties": {
        "no": 189,
        "name": "ファミリーマート 南１条西５丁目店",
        "rename": "",
        "address": "日本、〒060-0061 北海道札幌市中央区南１条西５丁目１−３",
        "year": "2016",
        "date": "2016-08-31"
      }
    },
    {
      "type": "Feature",
      "geometry": {
        "type": "Point",
        "coordinates": [
          141.352199,
          43.057774
        ]
      },
      "properties": {
        "no": 190,
        "name": "ファミリーマート 札幌南２条西４丁目店",
        "rename": "",
        "address": "日本、〒060-0062 北海道札幌市中央区南２条西４丁目１２−１",
        "year": "2016",
        "date": "2016-08-31"
      }
    },
    {
      "type": "Feature",
      "geometry": {
        "type": "Point",
        "coordinates": [
          135.7524559,
          35.0023871
        ]
      },
      "properties": {
        "no": 191,
        "name": "ファミリーマート 堀川綾小路店",
        "rename": "",
        "address": "日本、〒600-8478 京都府京都市下京区西綾小路西半町７２ ファミリーマート堀川綾小路店",
        "year": "2016",
        "date": "2016-08-30"
      }
    },
    {
      "type": "Feature",
      "geometry": {
        "type": "Point",
        "coordinates": [
          136.2216822,
          36.0614913
        ]
      },
      "properties": {
        "no": 192,
        "name": "ファミリーマート 福井駅前店",
        "rename": "",
        "address": "日本、〒910-0006 福井県福井市中央１丁目１−１１",
        "year": "2016",
        "date": "2016-09-06"
      }
    },
    {
      "type": "Feature",
      "geometry": {
        "type": "Point",
        "coordinates": [
          133.291903,
          33.948091
        ]
      },
      "properties": {
        "no": 193,
        "name": "ファミリーマート 新居浜坂井町店",
        "rename": "",
        "address": "日本、〒792-0812 愛媛県新居浜市坂井町２丁目２−３０",
        "year": "2016",
        "date": "2016-09-07"
      }
    },
    {
      "type": "Feature",
      "geometry": {
        "type": "Point",
        "coordinates": [
          132.768126,
          33.839049
        ]
      },
      "properties": {
        "no": 194,
        "name": "ファミリーマート 二番町三丁目店",
        "rename": "",
        "address": "日本、〒790-0002 愛媛県松山市二番町３丁目４−１０",
        "year": "2016",
        "date": "2016-09-07"
      }
    },
    {
      "type": "Feature",
      "geometry": {
        "type": "Point",
        "coordinates": [
          132.7678417,
          33.8408962
        ]
      },
      "properties": {
        "no": 195,
        "name": "ファミリーマート 愛媛県庁前店",
        "rename": "",
        "address": "日本、〒790-0001 愛媛県松山市一番町４丁目１−１１",
        "year": "2016",
        "date": "2016-09-07"
      }
    },
    {
      "type": "Feature",
      "geometry": {
        "type": "Point",
        "coordinates": [
          132.7590512,
          33.8514558
        ]
      },
      "properties": {
        "no": 196,
        "name": "ファミリーマート 松山本町六丁目店",
        "rename": "",
        "address": "日本、〒790-0811 愛媛県松山市本町６丁目１−１",
        "year": "2016",
        "date": "2016-09-07"
      }
    },
    {
      "type": "Feature",
      "geometry": {
        "type": "Point",
        "coordinates": [
          132.7592658,
          33.8466636
        ]
      },
      "properties": {
        "no": 197,
        "name": "ファミリーマート 本町三丁目店",
        "rename": "",
        "address": "日本、〒790-0811 愛媛県松山市本町３丁目６−５",
        "year": "2016",
        "date": "2016-09-07"
      }
    },
    {
      "type": "Feature",
      "geometry": {
        "type": "Point",
        "coordinates": [
          133.928053,
          34.656047
        ]
      },
      "properties": {
        "no": 198,
        "name": "ファミリーマート 岡山天瀬店",
        "rename": "",
        "address": "日本、〒700-0833 岡山県岡山市北区天瀬１−番5号",
        "year": "2016",
        "date": "2016-09-08"
      }
    },
    {
      "type": "Feature",
      "geometry": {
        "type": "Point",
        "coordinates": [
          135.5720259,
          34.6637691
        ]
      },
      "properties": {
        "no": 199,
        "name": "ファミリーマート 永和駅前店",
        "rename": "",
        "address": "日本、〒577-0843 大阪府東大阪市荒川３丁目５−１０",
        "year": "2016",
        "date": ""
      }
    },
    {
      "type": "Feature",
      "geometry": {
        "type": "Point",
        "coordinates": [
          139.8595321,
          35.6645886
        ]
      },
      "properties": {
        "no": 200,
        "name": "ファミリーマート サクマ西葛西駅店",
        "rename": "",
        "address": "日本、〒134-0088 東京都江戸川区西葛西６丁目１４−１",
        "year": "2016",
        "date": ""
      }
    },
    {
      "type": "Feature",
      "geometry": {
        "type": "Point",
        "coordinates": [
          139.8613481,
          35.6642593
        ]
      },
      "properties": {
        "no": 201,
        "name": "ファミリーマート 西葛西駅前店",
        "rename": "",
        "address": "日本、〒134-0088 東京都江戸川区西葛西６丁目１５−１２",
        "year": "2016",
        "date": "2016-09-13"
      }
    },
    {
      "type": "Feature",
      "geometry": {
        "type": "Point",
        "coordinates": [
          138.38874,
          34.972168
        ]
      },
      "properties": {
        "no": 202,
        "name": "ファミリーマート 静岡パルシェ店",
        "rename": "",
        "address": "日本、〒420-0851 静岡県静岡市葵区黒金町４９",
        "year": "2016",
        "date": ""
      }
    },
    {
      "type": "Feature",
      "geometry": {
        "type": "Point",
        "coordinates": [
          137.8514525,
          34.7103518
        ]
      },
      "properties": {
        "no": 203,
        "name": "ファミリーマート 磐田駅前店",
        "rename": "",
        "address": "日本、〒438-0078 静岡県磐田市中泉６２７−１",
        "year": "2016",
        "date": "2016-09-15"
      }
    },
    {
      "type": "Feature",
      "geometry": {
        "type": "Point",
        "coordinates": [
          135.723325,
          35.0105799
        ]
      },
      "properties": {
        "no": 204,
        "name": "ファミリーマート 御池山ノ内店",
        "rename": "",
        "address": "日本、〒615-0092 京都府京都市右京区山ノ内宮脇町１８−１",
        "year": "2016",
        "date": "2016-09-21"
      }
    },
    {
      "type": "Feature",
      "geometry": {
        "type": "Point",
        "coordinates": [
          127.670632,
          26.213094
        ]
      },
      "properties": {
        "no": 205,
        "name": "ファミリーマート 玉城西町店",
        "rename": "",
        "address": "日本、〒900-0036 沖縄県那覇市西２丁目３−１",
        "year": "2016",
        "date": "2016-09-24"
      }
    },
    {
      "type": "Feature",
      "geometry": {
        "type": "Point",
        "coordinates": [
          127.685698,
          26.215687
        ]
      },
      "properties": {
        "no": 206,
        "name": "ファミリーマート 国際通り中央店",
        "rename": "",
        "address": "日本、〒900-0013 沖縄県那覇市牧志１丁目２−２４",
        "year": "2016",
        "date": "2016-09-25"
      }
    },
    {
      "type": "Feature",
      "geometry": {
        "type": "Point",
        "coordinates": [
          127.6809127,
          26.2137109
        ]
      },
      "properties": {
        "no": 207,
        "name": "ファミリーマート ＲＥＸＡ ＲＹＵＢＯ店",
        "rename": "ファミリーマート 国際通り入口店",
        "address": "日本、〒900-0014 沖縄県那覇市松尾１丁目１−２",
        "year": "2016",
        "date": ""
      }
    },
    {
      "type": "Feature",
      "geometry": {
        "type": "Point",
        "coordinates": [
          127.7197092,
          26.220069
        ]
      },
      "properties": {
        "no": 208,
        "name": "ファミリーマート 県立芸大前店",
        "rename": "",
        "address": "日本、〒903-0812 沖縄県那覇市首里当蔵町２丁目 当蔵（首里公民館向け）",
        "year": "2016",
        "date": "2016-09-26"
      }
    },
    {
      "type": "Feature",
      "geometry": {
        "type": "Point",
        "coordinates": [
          127.6510357,
          26.2065434
        ]
      },
      "properties": {
        "no": 209,
        "name": "ファミリーマート 那覇空港ターミナル店",
        "rename": "",
        "address": "日本、〒901-0142 沖縄県那覇市鏡水１５０ 1F到着ロビ",
        "year": "2016",
        "date": "2016-09-26"
      }
    },
    {
      "type": "Feature",
      "geometry": {
        "type": "Point",
        "coordinates": [
          135.5019862,
          34.6668433
        ]
      },
      "properties": {
        "no": 210,
        "name": "ファミリーマート 千日前通なんば店",
        "rename": "",
        "address": "日本、〒542-0076 大阪府大阪市中央区難波３丁目４−１６ ECS第32ビル",
        "year": "2016",
        "date": "2016-09-26"
      }
    },
    {
      "type": "Feature",
      "geometry": {
        "type": "Point",
        "coordinates": [
          135.5006357,
          34.666858
        ]
      },
      "properties": {
        "no": 211,
        "name": "ファミリーマート なんば駅北１号店",
        "rename": "",
        "address": "日本、〒542-0076 大阪府大阪市中央区難波３丁目５−１１ 東亜ビル 402号",
        "year": "2016",
        "date": "2016-09-26"
      }
    },
    {
      "type": "Feature",
      "geometry": {
        "type": "Point",
        "coordinates": [
          135.497289,
          34.778691
        ]
      },
      "properties": {
        "no": 212,
        "name": "ファミリーマート 吹田千里山西店",
        "rename": "",
        "address": "日本、〒565-0851 大阪府吹田市千里山西４丁目３８−１０",
        "year": "2016",
        "date": "2016-10-26"
      }
    },
    {
      "type": "Feature",
      "geometry": {
        "type": "Point",
        "coordinates": [
          135.474691,
          34.775083
        ]
      },
      "properties": {
        "no": 213,
        "name": "ファミリーマート 豊中長興寺店",
        "rename": "",
        "address": "日本、〒561-0874 大阪府豊中市長興寺南１丁目３−８",
        "year": "2016",
        "date": "2016-10-26"
      }
    },
    {
      "type": "Feature",
      "geometry": {
        "type": "Point",
        "coordinates": [
          135.7162981,
          35.001714
        ]
      },
      "properties": {
        "no": 214,
        "name": "ファミリーマート 天神川高辻店",
        "rename": "",
        "address": "日本、〒615-0056 京都府京都市右京区西院西貝川町６１−６１",
        "year": "2016",
        "date": "2016-10-29"
      }
    },
    {
      "type": "Feature",
      "geometry": {
        "type": "Point",
        "coordinates": [
          135.7719612,
          34.8037821
        ]
      },
      "properties": {
        "no": 215,
        "name": "ファミリーマート 京田辺同志社店",
        "rename": "",
        "address": "日本、〒610-0332 京都府京田辺市興戸南鉾立９７−１",
        "year": "2016",
        "date": ""
      }
    },
    {
      "type": "Feature",
      "geometry": {
        "type": "Point",
        "coordinates": [
          135.1831457,
          34.6855302
        ]
      },
      "properties": {
        "no": 216,
        "name": "ファミリーマート みなと元町駅前店",
        "rename": "",
        "address": "日本、〒650-0022 兵庫県神戸市中央区元町通５丁目１−１",
        "year": "2016",
        "date": "2016-11-23"
      }
    },
    {
      "type": "Feature",
      "geometry": {
        "type": "Point",
        "coordinates": [
          135.4734702,
          34.7321879
        ]
      },
      "properties": {
        "no": 217,
        "name": "ファミリーマート 神崎川駅東店",
        "rename": "",
        "address": "日本、〒532-0033 大阪府大阪市淀川区新高６丁目１４−14-2F",
        "year": "2016",
        "date": "2016-11-23"
      }
    },
    {
      "type": "Feature",
      "geometry": {
        "type": "Point",
        "coordinates": [
          135.370771,
          34.719245
        ]
      },
      "properties": {
        "no": 218,
        "name": "ファミリーマート 阪神なるお駅前店",
        "rename": "",
        "address": "日本、〒663-8184 兵庫県西宮市鳴尾町３丁目２−１",
        "year": "2016",
        "date": "2016-11-23"
      }
    },
    {
      "type": "Feature",
      "geometry": {
        "type": "Point",
        "coordinates": [
          136.8841522,
          35.1698008
        ]
      },
      "properties": {
        "no": 219,
        "name": "ファミリーマート 名鉄名古屋駅上りホーム店",
        "rename": "",
        "address": "日本、〒450-0002 愛知県名古屋市中村区名駅１丁目２−１ 名鉄名古屋駅下りホーム",
        "year": "2016",
        "date": ""
      }
    },
    {
      "type": "Feature",
      "geometry": {
        "type": "Point",
        "coordinates": [
          137.156296,
          35.087252
        ]
      },
      "properties": {
        "no": 220,
        "name": "ファミリーマート 豊田市駅店",
        "rename": "",
        "address": "日本、〒471-0026 愛知県豊田市若宮町１丁目３５",
        "year": "2016",
        "date": ""
      }
    },
    {
      "type": "Feature",
      "geometry": {
        "type": "Point",
        "coordinates": [
          137.0186836,
          35.1207277
        ]
      },
      "properties": {
        "no": 221,
        "name": "ファミリーマート 赤池駅前店",
        "rename": "",
        "address": "日本、〒470-0125 愛知県日進市赤池１丁目２８１３",
        "year": "2016",
        "date": "2016-11-30"
      }
    },
    {
      "type": "Feature",
      "geometry": {
        "type": "Point",
        "coordinates": [
          136.9017296,
          35.142608
        ]
      },
      "properties": {
        "no": 222,
        "name": "ファミリーマート 名鉄金山駅改札内店",
        "rename": "",
        "address": "日本、〒456-0001 愛知県名古屋市熱田区金山町１丁目１−１８",
        "year": "2016",
        "date": ""
      }
    },
    {
      "type": "Feature",
      "geometry": {
        "type": "Point",
        "coordinates": [
          136.9453398,
          35.3805025
        ]
      },
      "properties": {
        "no": 223,
        "name": "ファミリーマート Ｅｓｔａｃｉｏ犬山駅店",
        "rename": "",
        "address": "日本、〒484-0081 愛知県犬山市犬山富士見町 犬山富士見町14 エスタシオン犬山 1F",
        "year": "2016",
        "date": ""
      }
    },
    {
      "type": "Feature",
      "geometry": {
        "type": "Point",
        "coordinates": [
          136.9369501,
          35.1919986
        ]
      },
      "properties": {
        "no": 224,
        "name": "ファミリーマート 名鉄大曽根駅店",
        "rename": "",
        "address": "日本、〒461-0048 愛知県名古屋市東区矢田南５丁目２−６",
        "year": "2016",
        "date": "2016-12-01"
      }
    },
    {
      "type": "Feature",
      "geometry": {
        "type": "Point",
        "coordinates": [
          130.4221322,
          33.5892879
        ]
      },
      "properties": {
        "no": 225,
        "name": "ファミリーマート 博多駅筑紫口店",
        "rename": "",
        "address": "日本、〒812-0012 福岡県福岡市博多区博多駅中央街５−１２",
        "year": "2016",
        "date": "2016-02-18"
      }
    },
    {
      "type": "Feature",
      "geometry": {
        "type": "Point",
        "coordinates": [
          130.2595094,
          33.5781407
        ]
      },
      "properties": {
        "no": 226,
        "name": "ファミリーマート ＪＲ九大学研都市駅店",
        "rename": "",
        "address": "日本、〒819-0379 福岡県福岡市西区北原１丁目１−３",
        "year": "2016",
        "date": ""
      }
    },
    {
      "type": "Feature",
      "geometry": {
        "type": "Point",
        "coordinates": [
          129.8938299,
          32.7514702
        ]
      },
      "properties": {
        "no": 227,
        "name": "ファミリーマート 螢茶屋店",
        "rename": "",
        "address": "日本、〒850-0013 長崎県長崎市中川２丁目１４−２６ NEビル",
        "year": "2016",
        "date": ""
      }
    },
    {
      "type": "Feature",
      "geometry": {
        "type": "Point",
        "coordinates": [
          129.8766014,
          32.7454669
        ]
      },
      "properties": {
        "no": 228,
        "name": "ファミリーマート 長崎築町店",
        "rename": "",
        "address": "日本、〒850-0877 長崎県長崎市築町４−１５",
        "year": "2016",
        "date": "2016-12-22"
      }
    },
    {
      "type": "Feature",
      "geometry": {
        "type": "Point",
        "coordinates": [
          129.8637318,
          32.7655674
        ]
      },
      "properties": {
        "no": 229,
        "name": "ファミリーマート ＪＲ浦上駅店",
        "rename": "",
        "address": "日本、〒852-8108 長崎県長崎市川口町１−５０",
        "year": "2016",
        "date": "2016-12-22"
      }
    },
    {
      "type": "Feature",
      "geometry": {
        "type": "Point",
        "coordinates": [
          130.519487,
          33.374066
        ]
      },
      "properties": {
        "no": 230,
        "name": "ファミリーマート ＪＲ鳥栖駅店",
        "rename": "",
        "address": "日本、〒841-0034 佐賀県鳥栖市京町７０９",
        "year": "2016",
        "date": "2016-12-22"
      }
    },
    {
      "type": "Feature",
      "geometry": {
        "type": "Point",
        "coordinates": [
          130.8806077,
          33.8844031
        ]
      },
      "properties": {
        "no": 231,
        "name": "ファミリーマート 小倉駅南店",
        "rename": "",
        "address": "日本、〒802-0006 福岡県北九州市小倉北区魚町１丁目４−２１ 魚町センタービル8階",
        "year": "2016",
        "date": "2016-12-22"
      }
    },
    {
      "type": "Feature",
      "geometry": {
        "type": "Point",
        "coordinates": [
          132.44659,
          34.394585
        ]
      },
      "properties": {
        "no": 232,
        "name": "ファミリーマート 広島堺町店",
        "rename": "",
        "address": "日本、〒730-0853 広島県広島市中区堺町１丁目５−１７",
        "year": "2016",
        "date": ""
      }
    },
    {
      "type": "Feature",
      "geometry": {
        "type": "Point",
        "coordinates": [
          132.4622092,
          34.3902252
        ]
      },
      "properties": {
        "no": 233,
        "name": "ファミリーマート 広島中央通り店",
        "rename": "",
        "address": "日本、〒730-0029 広島県広島市中区三川町２−８",
        "year": "2016",
        "date": ""
      }
    },
    {
      "type": "Feature",
      "geometry": {
        "type": "Point",
        "coordinates": [
          132.462569,
          34.392602
        ]
      },
      "properties": {
        "no": 234,
        "name": "ファミリーマート 広島金座街店",
        "rename": "",
        "address": "日本、〒730-0033 広島県広島市中区堀川町５−１１",
        "year": "2016",
        "date": "2016-12-23"
      }
    },
    {
      "type": "Feature",
      "geometry": {
        "type": "Point",
        "coordinates": [
          134.0032794,
          35.055797
        ]
      },
      "properties": {
        "no": 235,
        "name": "ファミリーマート 津山駅前店",
        "rename": "",
        "address": "日本、〒708-0881 岡山県津山市南町１丁目２６−１",
        "year": "2016",
        "date": "2016-12-24"
      }
    },
    {
      "type": "Feature",
      "geometry": {
        "type": "Point",
        "coordinates": [
          134.3527561,
          35.0027965
        ]
      },
      "properties": {
        "no": 236,
        "name": "ファミリーマート 佐用町店",
        "rename": "",
        "address": "日本、〒679-5301 兵庫県佐用郡佐用町佐用１４０９",
        "year": "2016",
        "date": "2016-12-24"
      }
    },
    {
      "type": "Feature",
      "geometry": {
        "type": "Point",
        "coordinates": [
          138.5678798,
          35.6658227
        ]
      },
      "properties": {
        "no": 237,
        "name": "ファミリーマート 甲府駅前店",
        "rename": "",
        "address": "日本、〒400-0031 山梨県甲府市丸の内２丁目２−３ 第11浅川ビル 3F",
        "year": "2016",
        "date": "2016-12-29"
      }
    },
    {
      "type": "Feature",
      "geometry": {
        "type": "Point",
        "coordinates": [
          138.5686605,
          35.6668217
        ]
      },
      "properties": {
        "no": 238,
        "name": "ファミリーマート セレオ甲府店",
        "rename": "",
        "address": "日本、〒400-0031 山梨県甲府市丸の内１丁目１−８",
        "year": "2016",
        "date": "2016-12-29"
      }
    },
    {
      "type": "Feature",
      "geometry": {
        "type": "Point",
        "coordinates": [
          139.338507,
          35.657858
        ]
      },
      "properties": {
        "no": 239,
        "name": "ファミリーマート ＪＲ八王子駅北口店",
        "rename": "",
        "address": "日本、〒192-0082 東京都八王子市東町１１−１１−２",
        "year": "2016",
        "date": "2016-12-29"
      }
    },
    {
      "type": "Feature",
      "geometry": {
        "type": "Point",
        "coordinates": [
          139.4371194,
          35.5324726
        ]
      },
      "properties": {
        "no": 240,
        "name": "ファミリーマート よろづや相模大野北口店",
        "rename": "",
        "address": "日本、〒252-0303 神奈川県相模原市南区相模大野３丁目９−１",
        "year": "2016",
        "date": "2016-12-29"
      }
    },
    {
      "type": "Feature",
      "geometry": {
        "type": "Point",
        "coordinates": [
          139.5508281,
          35.3178839
        ]
      },
      "properties": {
        "no": 241,
        "name": "ファミリーマート 鎌倉駅東口店",
        "rename": "",
        "address": "日本、〒248-0006 神奈川県鎌倉市小町１丁目２−１６ 早見プラザ 3F",
        "year": "2016",
        "date": "2016-12-30"
      }
    },
    {
      "type": "Feature",
      "geometry": {
        "type": "Point",
        "coordinates": [
          139.66249,
          35.280486
        ]
      },
      "properties": {
        "no": 242,
        "name": "ファミリーマート 横須賀汐入駅前店",
        "rename": "",
        "address": "日本、〒238-0041 神奈川県横須賀市本町３丁目３１",
        "year": "2016",
        "date": "2016-12-30"
      }
    },
    {
      "type": "Feature",
      "geometry": {
        "type": "Point",
        "coordinates": [
          139.776282,
          35.710196
        ]
      },
      "properties": {
        "no": 243,
        "name": "ファミリーマート 上野六丁目店",
        "rename": "",
        "address": "日本、〒110-0005 東京都台東区上野６丁目１６−２２",
        "year": "2016",
        "date": "2016-12-30"
      }
    },
    {
      "type": "Feature",
      "geometry": {
        "type": "Point",
        "coordinates": [
          139.1564894,
          35.2552605
        ]
      },
      "properties": {
        "no": 244,
        "name": "ファミリーマート 小田原駅東口店",
        "rename": "",
        "address": "日本、〒250-0011 神奈川県小田原市栄町１丁目２−１",
        "year": "2016",
        "date": "2016-12-31"
      }
    },
    {
      "type": "Feature",
      "geometry": {
        "type": "Point",
        "coordinates": [
          137.7360122,
          34.7037687
        ]
      },
      "properties": {
        "no": 245,
        "name": "ファミリーマート 浜松駅南口店",
        "rename": "",
        "address": "日本、〒430-0926 静岡県浜松市中央区砂山町３２６−２ 砂山貸ビル 2階",
        "year": "2016",
        "date": "2016-12-31"
      }
    },
    {
      "type": "Feature",
      "geometry": {
        "type": "Point",
        "coordinates": [
          135.4844002,
          34.591777
        ]
      },
      "properties": {
        "no": 246,
        "name": "ファミリーマート 堺七道東町店",
        "rename": "",
        "address": "日本、〒590-0913 大阪府堺市堺区七道東町１９２−２",
        "year": "2017",
        "date": "2017-01-02"
      }
    },
    {
      "type": "Feature",
      "geometry": {
        "type": "Point",
        "coordinates": [
          135.5006125,
          34.6679011
        ]
      },
      "properties": {
        "no": 247,
        "name": "ファミリーマート 難波一丁目店",
        "rename": "",
        "address": "日本、〒542-0076 大阪府大阪市中央区難波１丁目７−１０",
        "year": "2017",
        "date": "2017-01-27"
      }
    },
    {
      "type": "Feature",
      "geometry": {
        "type": "Point",
        "coordinates": [
          135.4792264,
          34.6708014
        ]
      },
      "properties": {
        "no": 248,
        "name": "ファミリーマート ドーム前千代崎駅南店",
        "rename": "",
        "address": "日本、〒550-0023 大阪府大阪市西区千代崎３丁目北２−８",
        "year": "2017",
        "date": "2017-02-04"
      }
    },
    {
      "type": "Feature",
      "geometry": {
        "type": "Point",
        "coordinates": [
          135.5054081,
          34.5563887
        ]
      },
      "properties": {
        "no": 249,
        "name": "ファミリーマート なかもず駅北口店",
        "rename": "",
        "address": "日本、〒591-8023 大阪府堺市北区中百舌鳥町２丁2−１０１",
        "year": "2017",
        "date": "2017-02-10"
      }
    },
    {
      "type": "Feature",
      "geometry": {
        "type": "Point",
        "coordinates": [
          135.722957,
          34.99966
        ]
      },
      "properties": {
        "no": 250,
        "name": "ファミリーマート 西院清水町店",
        "rename": "",
        "address": "日本、〒615-0052 京都府京都市右京区西院清水町１",
        "year": "2017",
        "date": "2017-02-14"
      }
    },
    {
      "type": "Feature",
      "geometry": {
        "type": "Point",
        "coordinates": [
          135.5122528,
          34.7038258
        ]
      },
      "properties": {
        "no": 251,
        "name": "ファミリーマート 天神橋四丁目店",
        "rename": "",
        "address": "日本、〒530-0041 大阪府大阪市北区天神橋４丁目６−３",
        "year": "2017",
        "date": "2017-02-24"
      }
    },
    {
      "type": "Feature",
      "geometry": {
        "type": "Point",
        "coordinates": [
          135.516644,
          34.702679
        ]
      },
      "properties": {
        "no": 252,
        "name": "ファミリーマート 同心町店",
        "rename": "",
        "address": "日本、〒530-0035 大阪府大阪市北区同心２丁目１４−２２",
        "year": "2017",
        "date": "2017-02-24"
      }
    },
    {
      "type": "Feature",
      "geometry": {
        "type": "Point",
        "coordinates": [
          135.536713,
          34.705552
        ]
      },
      "properties": {
        "no": 253,
        "name": "ファミリーマート 城東えなみ店",
        "rename": "",
        "address": "日本、〒536-0006 大阪府大阪市城東区野江２丁目４−９",
        "year": "2017",
        "date": "2017-02-24"
      }
    },
    {
      "type": "Feature",
      "geometry": {
        "type": "Point",
        "coordinates": [
          135.546267,
          34.7122
        ]
      },
      "properties": {
        "no": 254,
        "name": "ファミリーマート 成育五丁目店",
        "rename": "",
        "address": "日本、〒536-0007 大阪府大阪市城東区成育５丁目９−１５",
        "year": "2017",
        "date": "2017-02-24"
      }
    },
    {
      "type": "Feature",
      "geometry": {
        "type": "Point",
        "coordinates": [
          135.5458583,
          34.724463
        ]
      },
      "properties": {
        "no": 255,
        "name": "ファミリーマート 大宮二丁目店",
        "rename": "",
        "address": "日本、〒535-0002 大阪府大阪市旭区大宮２丁目１５−７",
        "year": "2017",
        "date": ""
      }
    },
    {
      "type": "Feature",
      "geometry": {
        "type": "Point",
        "coordinates": [
          137.004216,
          36.728229
        ]
      },
      "properties": {
        "no": 256,
        "name": "ファミリーマート 高岡卸売市場前店",
        "rename": "",
        "address": "日本、〒933-0852 富山県高岡市下黒田８０３番地１",
        "year": "2017",
        "date": "2017-03-01"
      }
    },
    {
      "type": "Feature",
      "geometry": {
        "type": "Point",
        "coordinates": [
          139.063098,
          37.913968
        ]
      },
      "properties": {
        "no": 257,
        "name": "ファミリーマート 新潟第一ホテル店",
        "rename": "",
        "address": "日本、〒950-0086 新潟県新潟市中央区花園１丁目３−１２",
        "year": "2017",
        "date": "2017-03-01"
      }
    },
    {
      "type": "Feature",
      "geometry": {
        "type": "Point",
        "coordinates": [
          140.303983,
          38.76003
        ]
      },
      "properties": {
        "no": 258,
        "name": "ファミリーマート 新庄若葉町店",
        "rename": "",
        "address": "日本、〒996-0025 山形県新庄市若葉町６−１１",
        "year": "2017",
        "date": "2017-03-02"
      }
    },
    {
      "type": "Feature",
      "geometry": {
        "type": "Point",
        "coordinates": [
          140.140197,
          39.717673
        ]
      },
      "properties": {
        "no": 259,
        "name": "ファミリーマート 秋田広面屋敷田店",
        "rename": "",
        "address": "日本、〒010-0041 秋田県秋田市広面屋敷田 ３１６番地",
        "year": "2017",
        "date": "2017-03-02"
      }
    },
    {
      "type": "Feature",
      "geometry": {
        "type": "Point",
        "coordinates": [
          140.735667,
          40.828243
        ]
      },
      "properties": {
        "no": 260,
        "name": "ファミリーマート 青森駅前店",
        "rename": "",
        "address": "日本、〒030-0801 青森県青森市新町１丁目１−２０",
        "year": "2017",
        "date": "2017-03-02"
      }
    },
    {
      "type": "Feature",
      "geometry": {
        "type": "Point",
        "coordinates": [
          140.4847905,
          40.599349
        ]
      },
      "properties": {
        "no": 261,
        "name": "ファミリーマート 弘前アプリーズ店",
        "rename": "",
        "address": "日本、〒036-8096 青森県弘前市表町２−１１",
        "year": "2017",
        "date": "2017-03-02"
      }
    },
    {
      "type": "Feature",
      "geometry": {
        "type": "Point",
        "coordinates": [
          141.145379,
          39.141814
        ]
      },
      "properties": {
        "no": 262,
        "name": "ファミリーマート 水沢寺小路店",
        "rename": "",
        "address": "日本、〒023-0811 岩手県奥州市水沢寺小路２８",
        "year": "2017",
        "date": "2017-03-03"
      }
    },
    {
      "type": "Feature",
      "geometry": {
        "type": "Point",
        "coordinates": [
          140.884322,
          38.2608113
        ]
      },