{
"type": "FeatureCollection",
"name": "layer",
"crs": { "type": "name", "properties": { "name": "urn:ogc:def:crs:OGC:1.3:CRS84" } },
"features": [
{ "type": "Feature", "properties": { "fid": 1, "id": 1, "name": "ファミリーマート 賀茂大橋店", "rename": null, "lon": 135.772631, "lat": 35.028762, "address": "日本、〒606-8204 京都府京都市左京区田中下柳町４７", "no": 1, "auxiliary_storage_symbol_char_f": null }, "geometry": { "type": "Point", "coordinates": [ 135.772631, 35.028762 ] } },
{ "type": "Feature", "properties": { "fid": 2, "id": 2, "name": "ファミリーマート 百万遍店", "rename": null, "lon": 135.779528, "lat": 35.0312396, "address": "日本、〒606-8225 京都府京都市左京区田中門前町２丁目２?２", "no": 2, "auxiliary_storage_symbol_char_f": null }, "geometry": { "type": "Point", "coordinates": [ 135.779528, 35.0312396 ] } },
{ "type": "Feature", "properties": { "fid": 3, "id": 3, "name": "ファミリーマート 麻田東一条店", "rename": null, "lon": 135.7770373, "lat": 35.0251432, "address": "日本、〒606-8302 京都府京都市左京区吉田牛ノ宮町１９", "no": 3, "auxiliary_storage_symbol_char_f": null }, "geometry": { "type": "Point", "coordinates": [ 135.777037299999989, 35.0251432 ] } },
{ "type": "Feature", "properties": { "fid": 4, "id": 4, "name": "ファミリーマート 河原町蛸薬師店", "rename": null, "lon": 135.768873, "lat": 35.006438, "address": "日本、〒604-8033 京都府京都市中京区奈良屋町河原町通蛸薬師上る?２９５", "no": 4, "auxiliary_storage_symbol_char_f": null }, "geometry": { "type": "Point", "coordinates": [ 135.768873, 35.006438 ] } },
{ "type": "Feature", "properties": { "fid": 5, "id": 5, "name": "ファミリーマート 御池西洞院店", "rename": null, "lon": 135.75534, "lat": 35.010582, "address": "日本、〒604-8277 京都府京都市中京区三坊西洞院町５７９", "no": 5, "auxiliary_storage_symbol_char_f": null }, "geometry": { "type": "Point", "coordinates": [ 135.75534, 35.010582 ] } },
{ "type": "Feature", "properties": { "fid": 6, "id": 6, "name": "ファミリーマート 四条大宮店", "rename": null, "lon": 135.747515, "lat": 35.003415, "address": "日本、〒604-8811 京都府京都市中京区壬生賀陽御所町３?７", "no": 6, "auxiliary_storage_symbol_char_f": null }, "geometry": { "type": "Point", "coordinates": [ 135.747515, 35.003415 ] } },
{ "type": "Feature", "properties": { "fid": 7, "id": 7, "name": "ファミリーマート 京都三条高倉店", "rename": null, "lon": 135.762602, "lat": 35.008475, "address": "日本、〒604-8111 京都府京都市中京区桝屋町５４?１", "no": 7, "auxiliary_storage_symbol_char_f": null }, "geometry": { "type": "Point", "coordinates": [ 135.762602, 35.008475 ] } },
{ "type": "Feature", "properties": { "fid": 8, "id": 8, "name": "ファミリーマート ユアサ聖護院店", "rename": null, "lon": 135.777815, "lat": 35.017233, "address": "日本、〒606-8392 京都府京都市左京区聖護院山王町４３?５", "no": 8, "auxiliary_storage_symbol_char_f": null }, "geometry": { "type": "Point", "coordinates": [ 135.777815, 35.017233 ] } },
{ "type": "Feature", "properties": { "fid": 9, "id": 9, "name": "ファミリーマート 千本三条店", "rename": null, "lon": 135.7429091, "lat": 35.0087273, "address": "日本、〒604-8412 京都府京都市中京区西ノ京南聖町１８?２０", "no": 9, "auxiliary_storage_symbol_char_f": null }, "geometry": { "type": "Point", "coordinates": [ 135.7429091, 35.0087273 ] } },
{ "type": "Feature", "properties": { "fid": 10, "id": 10, "name": "ファミリーマート 四条木屋町北店", "rename": null, "lon": 135.770749, "lat": 35.004292, "address": "日本、〒604-8015 京都府京都市中京区鍋屋町木屋町通四条上る?２２２", "no": 10, "auxiliary_storage_symbol_char_f": null }, "geometry": { "type": "Point", "coordinates": [ 135.770749, 35.004292 ] } },
{ "type": "Feature", "properties": { "fid": 11, "id": 11, "name": "ファミリーマート 京都堺町御池店", "rename": null, "lon": 135.7633534, "lat": 35.0104914, "address": "日本、〒604-8106 京都府京都市中京区丸木材木町６７０?１ 吉岡御池ビル 6階", "no": 11, "auxiliary_storage_symbol_char_f": null }, "geometry": { "type": "Point", "coordinates": [ 135.7633534, 35.0104914 ] } },
{ "type": "Feature", "properties": { "fid": 12, "id": 12, "name": "ファミリーマート 中徳烏丸二条店", "rename": null, "lon": 135.7592911, "lat": 35.0146114, "address": "日本、〒604-0857 京都府京都市中京区蒔絵屋町烏丸通二条上る?２５７", "no": 12, "auxiliary_storage_symbol_char_f": null }, "geometry": { "type": "Point", "coordinates": [ 135.759291100000013, 35.0146114 ] } },
{ "type": "Feature", "properties": { "fid": 13, "id": 13, "name": "ファミリーマート 二条聚楽町店", "rename": null, "lon": 135.742835, "lat": 35.0159675, "address": "日本、〒602-8156 京都府京都市上京区聚楽町千本通竹屋町下る?８６３?５２", "no": 13, "auxiliary_storage_symbol_char_f": null }, "geometry": { "type": "Point", "coordinates": [ 135.742835, 35.0159675 ] } },
{ "type": "Feature", "properties": { "fid": 14, "id": 14, "name": "ファミリーマート 寺町二条店", "rename": null, "lon": 135.767043, "lat": 35.013553, "address": "日本、〒604-0932 京都府京都市中京区妙満寺前町４４４", "no": 14, "auxiliary_storage_symbol_char_f": null }, "geometry": { "type": "Point", "coordinates": [ 135.767043, 35.013553 ] } },
{ "type": "Feature", "properties": { "fid": 15, "id": 15, "name": "ファミリーマート 四条西洞院店", "rename": null, "lon": 135.754945, "lat": 35.003509, "address": "日本、〒600-8472 京都府京都市下京区妙伝寺町６８９", "no": 15, "auxiliary_storage_symbol_char_f": null }, "geometry": { "type": "Point", "coordinates": [ 135.754945, 35.003509 ] } },
{ "type": "Feature", "properties": { "fid": 16, "id": 16, "name": "ファミリーマート 丸太町猪熊店", "rename": null, "lon": 135.7506271, "lat": 35.0174844, "address": "日本、〒602-8148 京都府京都市上京区丸太町通猪熊東入西丸太町１８５", "no": 16, "auxiliary_storage_symbol_char_f": null }, "geometry": { "type": "Point", "coordinates": [ 135.7506271, 35.0174844 ] } },
{ "type": "Feature", "properties": { "fid": 17, "id": 17, "name": "ファミリーマート 烏丸今出川店", "rename": null, "lon": 135.7590435, "lat": 35.0289153, "address": "日本、〒602-0033 京都府京都市上京区今出川町３３１", "no": 17, "auxiliary_storage_symbol_char_f": null }, "geometry": { "type": "Point", "coordinates": [ 135.7590435, 35.0289153 ] } },
{ "type": "Feature", "properties": { "fid": 18, "id": 18, "name": "ファミリーマート 京都烏丸松原店", "rename": null, "lon": 135.7594191, "lat": 34.9987703, "address": "日本、〒600-8427 京都府京都市下京区玉津島町松原通烏丸西入３１６?２", "no": 18, "auxiliary_storage_symbol_char_f": null }, "geometry": { "type": "Point", "coordinates": [ 135.7594191, 34.9987703 ] } },
{ "type": "Feature", "properties": { "fid": 19, "id": 19, "name": "ファミリーマート 四条室町店", "rename": null, "lon": 135.7584676, "lat": 35.0039343, "address": "日本、〒600-8009 京都府京都市下京区函谷鉾町８３ 第3田源ビル6階 京都市下京区四条烏丸西入", "no": 19, "auxiliary_storage_symbol_char_f": null }, "geometry": { "type": "Point", "coordinates": [ 135.758467599999989, 35.0039343 ] } },
{ "type": "Feature", "properties": { "fid": 20, "id": 20, "name": "ファミリーマート 烏丸六角店", "rename": null, "lon": 135.759945, "lat": 35.007457, "address": "日本、〒604-8134 京都府京都市中京区堂之前町２５４", "no": 20, "auxiliary_storage_symbol_char_f": null }, "geometry": { "type": "Point", "coordinates": [ 135.759945, 35.007457 ] } },
{ "type": "Feature", "properties": { "fid": 21, "id": 21, "name": "ファミリーマート 河原町御池店", "rename": "ファミリーマート 本能寺店", "lon": 135.768162, "lat": 35.0106241, "address": "日本、〒604-8091 京都府京都市中京区下本能寺前町 河原町御池", "no": 21, "auxiliary_storage_symbol_char_f": null }, "geometry": { "type": "Point", "coordinates": [ 135.768162, 35.0106241 ] } },
{ "type": "Feature", "properties": { "fid": 22, "id": 22, "name": "ファミリーマート 西大路西院店", "rename": null, "lon": 135.7322661, "lat": 35.0008866, "address": "日本、〒615-0022 京都府京都市右京区西院平町１１", "no": 22, "auxiliary_storage_symbol_char_f": null }, "geometry": { "type": "Point", "coordinates": [ 135.7322661, 35.0008866 ] } },
{ "type": "Feature", "properties": { "fid": 23, "id": 23, "name": "ファミリーマート 四条木屋町南店", "rename": null, "lon": 135.7706793, "lat": 35.003326, "address": "日本、〒600-8012 京都府京都市下京区斎藤町１１９", "no": 23, "auxiliary_storage_symbol_char_f": null }, "geometry": { "type": "Point", "coordinates": [ 135.770679300000012, 35.003326 ] } },
{ "type": "Feature", "properties": { "fid": 24, "id": 24, "name": "ファミリーマート 堀川高辻店", "rename": null, "lon": 135.7524132, "lat": 35.0003307, "address": "日本、〒600-8484 京都府京都市下京区西高辻町１９７", "no": 24, "auxiliary_storage_symbol_char_f": null }, "geometry": { "type": "Point", "coordinates": [ 135.7524132, 35.0003307 ] } },
{ "type": "Feature", "properties": { "fid": 25, "id": 25, "name": "ファミリーマート 新町高辻店", "rename": null, "lon": 135.7565472, "lat": 35.0002077, "address": "日本、〒600-8445 京都府京都市下京区岩戸山町４４０", "no": 25, "auxiliary_storage_symbol_char_f": null }, "geometry": { "type": "Point", "coordinates": [ 135.7565472, 35.0002077 ] } },
{ "type": "Feature", "properties": { "fid": 26, "id": 26, "name": "ファミリーマート 千本笹屋町店", "rename": null, "lon": 135.7426785, "lat": 35.0284525, "address": "日本、〒602-8464 京都府京都市上京区元四丁目４０４", "no": 26, "auxiliary_storage_symbol_char_f": null }, "geometry": { "type": "Point", "coordinates": [ 135.742678500000011, 35.0284525 ] } },
{ "type": "Feature", "properties": { "fid": 27, "id": 27, "name": "ファミリーマート 堀川中立売店", "rename": null, "lon": 135.751527, "lat": 35.025238, "address": "日本、〒602-8241 京都府京都市上京区役人町１３０", "no": 27, "auxiliary_storage_symbol_char_f": null }, "geometry": { "type": "Point", "coordinates": [ 135.751527, 35.025238 ] } },
{ "type": "Feature", "properties": { "fid": 28, "id": 28, "name": "ファミリーマート 京都今出川針屋町店", "rename": null, "lon": 135.7541205, "lat": 35.0295266, "address": "日本、〒602-0948 京都府京都市上京区針屋町小川通今出川下る?３５４", "no": 28, "auxiliary_storage_symbol_char_f": null }, "geometry": { "type": "Point", "coordinates": [ 135.7541205, 35.0295266 ] } },
{ "type": "Feature", "properties": { "fid": 29, "id": 29, "name": "ファミリーマート 三条御幸町店", "rename": "ファミリーマート 三条寺町店", "lon": 135.76681, "lat": 35.008834, "address": "日本、〒604-8082 京都府京都市中京区弁慶石町三条通麩屋町東入６３ 林ビル", "no": 29, "auxiliary_storage_symbol_char_f": null }, "geometry": { "type": "Point", "coordinates": [ 135.76681, 35.008834 ] } },
{ "type": "Feature", "properties": { "fid": 30, "id": 30, "name": "ファミリーマート 四条高倉店", "rename": null, "lon": 135.7612568, "lat": 35.0035364, "address": "日本、〒600-8007 京都府京都市下京区立売西町６２ ファミリーマート四条高倉店", "no": 30, "auxiliary_storage_symbol_char_f": null }, "geometry": { "type": "Point", "coordinates": [ 135.761256800000012, 35.0035364 ] } },
{ "type": "Feature", "properties": { "fid": 31, "id": 31, "name": "ファミリーマート 河原町今出川店", "rename": null, "lon": 135.7692484, "lat": 35.0276127, "address": "日本、〒602-0842 京都府京都市上京区栄町河原町通石薬師上る?３６５", "no": 31, "auxiliary_storage_symbol_char_f": null }, "geometry": { "type": "Point", "coordinates": [ 135.7692484, 35.0276127 ] } },
{ "type": "Feature", "properties": { "fid": 32, "id": 32, "name": "ファミリーマート 出町店", "rename": null, "lon": 135.7699872, "lat": 35.0304697, "address": "日本、〒602-0822 京都府京都市上京区青龍町２２５", "no": 32, "auxiliary_storage_symbol_char_f": null }, "geometry": { "type": "Point", "coordinates": [ 135.7699872, 35.0304697 ] } },
{ "type": "Feature", "properties": { "fid": 33, "id": 33, "name": "ファミリーマート 千本鞍馬口店", "rename": null, "lon": 135.7394269, "lat": 35.037494, "address": "日本、〒603-8303 京都府京都市北区紫野十二坊町３１ ファミリーマート千本鞍馬口店", "no": 33, "auxiliary_storage_symbol_char_f": null }, "geometry": { "type": "Point", "coordinates": [ 135.739426900000012, 35.037494 ] } },
{ "type": "Feature", "properties": { "fid": 34, "id": 34, "name": "ファミリーマート 浜大津駅前店", "rename": "ファミリーマート びわこ浜大津駅前店", "lon": 135.862993, "lat": 35.011302, "address": "日本、〒520-0047 滋賀県大津市浜大津２丁目１?２８ ファミリーマート浜大津駅前店", "no": 34, "auxiliary_storage_symbol_char_f": null }, "geometry": { "type": "Point", "coordinates": [ 135.862993, 35.011302 ] } },
{ "type": "Feature", "properties": { "fid": 35, "id": 35, "name": "ファミリーマート 駒ケ岳ＳＡ上り店", "rename": null, "lon": 137.9058282, "lat": 35.7111779, "address": "日本、〒399-4117 長野県駒ヶ根市赤穂 大徳原15-160 駒ケ岳SA上り フォレストガーデン", "no": 35, "auxiliary_storage_symbol_char_f": null }, "geometry": { "type": "Point", "coordinates": [ 137.9058282, 35.7111779 ] } },
{ "type": "Feature", "properties": { "fid": 36, "id": 36, "name": "ファミリーマート 四条東洞院店", "rename": null, "lon": 135.760976, "lat": 35.004448, "address": "日本、〒604-8143 京都府京都市中京区阪東屋町６６４?１", "no": 36, "auxiliary_storage_symbol_char_f": null }, "geometry": { "type": "Point", "coordinates": [ 135.760976, 35.004448 ] } },
{ "type": "Feature", "properties": { "fid": 37, "id": 37, "name": "ファミリーマート 四条河原町店", "rename": null, "lon": 135.769441, "lat": 35.0051933, "address": "日本、〒604-8025 京都府京都市中京区下大阪町３４９?６", "no": 37, "auxiliary_storage_symbol_char_f": null }, "geometry": { "type": "Point", "coordinates": [ 135.769441, 35.0051933 ] } },
{ "type": "Feature", "properties": { "fid": 38, "id": 38, "name": "ファミリーマート 西大路九条店", "rename": null, "lon": 135.7331943, "lat": 34.9787298, "address": "日本、〒601-8329 京都府京都市南区吉祥院清水町３８", "no": 38, "auxiliary_storage_symbol_char_f": null }, "geometry": { "type": "Point", "coordinates": [ 135.7331943, 34.9787298 ] } },
{ "type": "Feature", "properties": { "fid": 39, "id": 39, "name": "ファミリーマート 唐橋羅城門町店", "rename": null, "lon": 135.7404237, "lat": 34.97845, "address": "日本、〒601-8453 京都府京都市南区唐橋羅城門町１３?４", "no": 39, "auxiliary_storage_symbol_char_f": null }, "geometry": { "type": "Point", "coordinates": [ 135.7404237, 34.97845 ] } },
{ "type": "Feature", "properties": { "fid": 40, "id": 40, "name": "ファミリーマート 東郷東山安井店", "rename": null, "lon": 135.7770743, "lat": 34.9993191, "address": "日本、〒605-0823 京都府京都市東山区下弁天町５２", "no": 40, "auxiliary_storage_symbol_char_f": null }, "geometry": { "type": "Point", "coordinates": [ 135.77707430000001, 34.9993191 ] } },
{ "type": "Feature", "properties": { "fid": 41, "id": 41, "name": "ファミリーマート わたなべ紫野店", "rename": null, "lon": 135.7449734, "lat": 35.0405947, "address": "日本、〒603-8232 京都府京都市北区紫野東野町２４", "no": 41, "auxiliary_storage_symbol_char_f": null }, "geometry": { "type": "Point", "coordinates": [ 135.7449734, 35.0405947 ] } },
{ "type": "Feature", "properties": { "fid": 42, "id": 42, "name": "ファミリーマート 長者亀屋町店", "rename": null, "lon": 135.7530829, "lat": 35.0226901, "address": "日本、〒602-8062 京都府京都市上京区亀屋町１５２?１", "no": 42, "auxiliary_storage_symbol_char_f": null }, "geometry": { "type": "Point", "coordinates": [ 135.75308290000001, 35.0226901 ] } },
{ "type": "Feature", "properties": { "fid": 43, "id": 43, "name": "ファミリーマート 寺町綾小路店", "rename": null, "lon": 135.7667975, "lat": 35.0025737, "address": "日本、〒600-8038 京都府京都市下京区綾小路通寺町西入足袋屋町３３２?１", "no": 43, "auxiliary_storage_symbol_char_f": null }, "geometry": { "type": "Point", "coordinates": [ 135.7667975, 35.0025737 ] } },
{ "type": "Feature", "properties": { "fid": 44, "id": 44, "name": "ファミリーマート 薬ヒグチ西陣北店", "rename": null, "lon": 135.748572, "lat": 35.0352146, "address": "日本、〒602-0093 京都府京都市上京区仲之町４８３", "no": 44, "auxiliary_storage_symbol_char_f": null }, "geometry": { "type": "Point", "coordinates": [ 135.748572, 35.0352146 ] } },
{ "type": "Feature", "properties": { "fid": 45, "id": 45, "name": "ファミリーマート 智恵光院下長者町店", "rename": null, "lon": 135.7469419, "lat": 35.0219547, "address": "日本、〒602-8172 京都府京都市上京区智恵光院通出水上る天秤丸町１８２", "no": 45, "auxiliary_storage_symbol_char_f": null }, "geometry": { "type": "Point", "coordinates": [ 135.7469419, 35.0219547 ] } },
{ "type": "Feature", "properties": { "fid": 46, "id": 46, "name": "ファミリーマート 綾小路東洞院店", "rename": null, "lon": 135.7612986, "lat": 35.0011674, "address": "日本、〒600-8096 京都府京都市下京区高橋町６０８", "no": 46, "auxiliary_storage_symbol_char_f": null }, "geometry": { "type": "Point", "coordinates": [ 135.7612986, 35.0011674 ] } },
{ "type": "Feature", "properties": { "fid": 47, "id": 47, "name": "ファミリーマート 河原町五条店", "rename": null, "lon": 135.765836, "lat": 34.995623, "address": "日本、〒600-8119 京都府京都市下京区本塩竈町５５８?８", "no": 47, "auxiliary_storage_symbol_char_f": null }, "geometry": { "type": "Point", "coordinates": [ 135.765836, 34.995623 ] } },
{ "type": "Feature", "properties": { "fid": 48, "id": 48, "name": "ファミリーマート 綾小路室町店", "rename": null, "lon": 135.7579393, "lat": 35.0021194, "address": "日本、〒600-8422 京都府京都市下京区白楽天町５０９", "no": 48, "auxiliary_storage_symbol_char_f": null }, "geometry": { "type": "Point", "coordinates": [ 135.7579393, 35.0021194 ] } },
{ "type": "Feature", "properties": { "fid": 49, "id": 49, "name": "ファミリーマート 紫明通店", "rename": null, "lon": 135.755049, "lat": 35.038364, "address": "日本、〒603-8156 京都府京都市北区小山中溝町３１", "no": 49, "auxiliary_storage_symbol_char_f": null }, "geometry": { "type": "Point", "coordinates": [ 135.755049, 35.038364 ] } },
{ "type": "Feature", "properties": { "fid": 50, "id": 50, "name": "ファミリーマート 八幡千束店", "rename": null, "lon": 135.7043036, "lat": 34.8846694, "address": "日本、〒614-8003 京都府八幡市八幡千束１８", "no": 50, "auxiliary_storage_symbol_char_f": null }, "geometry": { "type": "Point", "coordinates": [ 135.7043036, 34.8846694 ] } },
{ "type": "Feature", "properties": { "fid": 51, "id": 51, "name": "ファミリーマート 下鴨北園町店", "rename": null, "lon": 135.7708801, "lat": 35.0482584, "address": "日本、〒606-0831 京都府京都市左京区下鴨北園町７１?１１", "no": 51, "auxiliary_storage_symbol_char_f": null }, "geometry": { "type": "Point", "coordinates": [ 135.7708801, 35.0482584 ] } },
{ "type": "Feature", "properties": { "fid": 52, "id": 52, "name": "ファミリーマート ゼスト御池店", "rename": null, "lon": 135.7683468, "lat": 35.0110489, "address": "日本、〒604-8091 京都府京都市中京区下本能寺前町 京都市役所前駅", "no": 52, "auxiliary_storage_symbol_char_f": null }, "geometry": { "type": "Point", "coordinates": [ 135.768346799999989, 35.0110489 ] } },
{ "type": "Feature", "properties": { "fid": 53, "id": 53, "name": "ファミリーマート 四条西新道店", "rename": null, "lon": 135.7377364, "lat": 35.0034729, "address": "日本、〒604-8831 京都府京都市中京区壬生森前町１０?５", "no": 53, "auxiliary_storage_symbol_char_f": null }, "geometry": { "type": "Point", "coordinates": [ 135.737736399999989, 35.0034729 ] } },
{ "type": "Feature", "properties": { "fid": 54, "id": 54, "name": "ファミリーマート 塚本祇園東山店", "rename": null, "lon": 135.778133, "lat": 35.008045, "address": "日本、〒605-0016 京都府京都市東山区進之町５８４", "no": 54, "auxiliary_storage_symbol_char_f": null }, "geometry": { "type": "Point", "coordinates": [ 135.778133, 35.008045 ] } },
{ "type": "Feature", "properties": { "fid": 55, "id": 55, "name": "ファミリーマート 西梅田店", "rename": null, "lon": 135.495452, "lat": 34.6992881, "address": "日本、〒530-0001 大阪府大阪市北区梅田２丁目１?１８", "no": 55, "auxiliary_storage_symbol_char_f": null }, "geometry": { "type": "Point", "coordinates": [ 135.495452, 34.6992881 ] } },
{ "type": "Feature", "properties": { "fid": 56, "id": 56, "name": "ファミリーマート 近鉄京都駅店", "rename": null, "lon": 135.757358, "lat": 34.984675, "address": "日本、〒600-8215 京都府京都市下京区東塩小路釜殿町３１", "no": 56, "auxiliary_storage_symbol_char_f": null }, "geometry": { "type": "Point", "coordinates": [ 135.757358, 34.984675 ] } },
{ "type": "Feature", "properties": { "fid": 57, "id": 57, "name": "ファミリーマート 天王寺駅南店", "rename": null, "lon": 135.5144265, "lat": 34.6471486, "address": "日本、〒543-0055 大阪府大阪市天王寺区悲田院町１０?４８ 天王寺ミオプラザ館 M2F", "no": 57, "auxiliary_storage_symbol_char_f": null }, "geometry": { "type": "Point", "coordinates": [ 135.514426500000013, 34.6471486 ] } },
{ "type": "Feature", "properties": { "fid": 58, "id": 58, "name": "ファミリーマート 住之江公園駅南店", "rename": null, "lon": 135.4731521, "lat": 34.609032, "address": "日本、〒559-0023 大阪府大阪市住之江区泉１丁目１?５２", "no": 58, "auxiliary_storage_symbol_char_f": null }, "geometry": { "type": "Point", "coordinates": [ 135.4731521, 34.609032 ] } },
{ "type": "Feature", "properties": { "fid": 59, "id": 59, "name": "ファミリーマート 本町駅南店", "rename": null, "lon": 135.4973325, "lat": 34.6822251, "address": "日本、〒541-0055 大阪府大阪市中央区船場中央４丁目１?６ 本町駅", "no": 59, "auxiliary_storage_symbol_char_f": null }, "geometry": { "type": "Point", "coordinates": [ 135.4973325, 34.6822251 ] } },
{ "type": "Feature", "properties": { "fid": 60, "id": 60, "name": "ファミリーマート 地下鉄新大阪駅ナカ店", "rename": null, "lon": 135.498618, "lat": 34.73304, "address": "日本、〒532-0011 大阪府大阪市淀川区西中島５丁目１６ 新大阪駅", "no": 60, "auxiliary_storage_symbol_char_f": null }, "geometry": { "type": "Point", "coordinates": [ 135.498618, 34.73304 ] } },
{ "type": "Feature", "properties": { "fid": 61, "id": 61, "name": "ファミリーマート 本町駅ホーム店", "rename": null, "lon": 135.4999949, "lat": 34.6818839, "address": "日本、〒541-0055 大阪府大阪市中央区船場中央４丁目１?６ 本町駅", "no": 61, "auxiliary_storage_symbol_char_f": null }, "geometry": { "type": "Point", "coordinates": [ 135.4999949, 34.6818839 ] } },
{ "type": "Feature", "properties": { "fid": 62, "id": 62, "name": "ファミリーマート 河原町三条店", "rename": null, "lon": 135.7692221, "lat": 35.0094893, "address": "日本、〒604-8005 京都府京都市中京区恵比須町 三条上る恵比須町427", "no": 62, "auxiliary_storage_symbol_char_f": null }, "geometry": { "type": "Point", "coordinates": [ 135.7692221, 35.0094893 ] } },
{ "type": "Feature", "properties": { "fid": 63, "id": 63, "name": "ファミリーマート 京都御池御前店", "rename": null, "lon": 135.7364494, "lat": 35.0106853, "address": "日本、〒604-8423 京都府京都市中京区西ノ京西月光町６?１", "no": 63, "auxiliary_storage_symbol_char_f": null }, "geometry": { "type": "Point", "coordinates": [ 135.7364494, 35.0106853 ] } },
{ "type": "Feature", "properties": { "fid": 64, "id": 64, "name": "ファミリーマート 京都御前太子道店", "rename": null, "lon": 135.7365062, "lat": 35.0145461, "address": "日本、〒604-8492 京都府京都市中京区西ノ京右馬寮町１０?１", "no": 64, "auxiliary_storage_symbol_char_f": null }, "geometry": { "type": "Point", "coordinates": [ 135.7365062, 35.0145461 ] } },
{ "type": "Feature", "properties": { "fid": 65, "id": 65, "name": "ファミリーマート 松尾大社前店", "rename": null, "lon": 135.688353, "lat": 35.000711, "address": "日本、〒616-0023 京都府京都市西京区嵐山宮ノ前町１０３", "no": 65, "auxiliary_storage_symbol_char_f": null }, "geometry": { "type": "Point", "coordinates": [ 135.688353, 35.000711 ] } },
{ "type": "Feature", "properties": { "fid": 66, "id": 66, "name": "ファミリーマート 葵橋西詰店", "rename": null, "lon": 135.7692114, "lat": 35.0320641, "address": "日本、〒603-8136 京都府京都市北区出雲路神楽町２２?９", "no": 66, "auxiliary_storage_symbol_char_f": null }, "geometry": { "type": "Point", "coordinates": [ 135.769211399999989, 35.0320641 ] } },
{ "type": "Feature", "properties": { "fid": 67, "id": 67, "name": "ファミリーマート 北梅田店", "rename": null, "lon": 135.4957404, "lat": 34.7052502, "address": "日本、〒530-0012 大阪府大阪市北区芝田２丁目３?２３", "no": 67, "auxiliary_storage_symbol_char_f": null }, "geometry": { "type": "Point", "coordinates": [ 135.495740399999988, 34.7052502 ] } },
{ "type": "Feature", "properties": { "fid": 68, "id": 68, "name": "ファミリーマート みなとじま駅前店", "rename": null, "lon": 135.2094607, "lat": 34.6697666, "address": "日本、〒650-0046 兵庫県神戸市中央区港島中町４丁目６?２", "no": 68, "auxiliary_storage_symbol_char_f": null }, "geometry": { "type": "Point", "coordinates": [ 135.2094607, 34.6697666 ] } },
{ "type": "Feature", "properties": { "fid": 69, "id": 69, "name": "ファミリーマート 新京極蛸薬師店", "rename": null, "lon": 135.767096, "lat": 35.005792, "address": "日本、〒604-8046 京都府京都市中京区東側町５０８", "no": 69, "auxiliary_storage_symbol_char_f": null }, "geometry": { "type": "Point", "coordinates": [ 135.767096, 35.005792 ] } },
{ "type": "Feature", "properties": { "fid": 70, "id": 70, "name": "ファミリーマート 南条ＳＡ下り店", "rename": null, "lon": 136.2020776, "lat": 35.8251968, "address": "日本、〒919-0204 福井県南条郡南越前町上野７８?８", "no": 70, "auxiliary_storage_symbol_char_f": null }, "geometry": { "type": "Point", "coordinates": [ 136.2020776, 35.8251968 ] } },
{ "type": "Feature", "properties": { "fid": 71, "id": 71, "name": "ファミリーマート ＥＸＰＡＳＡ多賀下り店", "rename": null, "lon": 136.2854314, "lat": 35.2188564, "address": "日本、〒522-0342 滋賀県犬上郡多賀町敏満寺６６?３６", "no": 71, "auxiliary_storage_symbol_char_f": null }, "geometry": { "type": "Point", "coordinates": [ 136.2854314, 35.2188564 ] } },
{ "type": "Feature", "properties": { "fid": 72, "id": 72, "name": "ファミリーマートとみた御前通仁和店", "rename": null, "lon": 135.7358668, "lat": 35.0234711, "address": "日本、〒602-8361 京都府京都市上京区御前通下立売上る三丁目西上之町２４８", "no": 72, "auxiliary_storage_symbol_char_f": null }, "geometry": { "type": "Point", "coordinates": [ 135.7358668, 35.0234711 ] } },
{ "type": "Feature", "properties": { "fid": 73, "id": 73, "name": "ファミリーマート 佐井太子道店", "rename": null, "lon": 135.7297071, "lat": 35.0155838, "address": "日本、〒604-8472 京都府京都市中京区西ノ京北壺井町３０?１", "no": 73, "auxiliary_storage_symbol_char_f": null }, "geometry": { "type": "Point", "coordinates": [ 135.729707100000013, 35.0155838 ] } },
{ "type": "Feature", "properties": { "fid": 74, "id": 74, "name": "ファミリーマート 中立売智恵光院店", "rename": null, "lon": 135.7470411, "lat": 35.0251907, "address": "日本、〒602-8261 京都府京都市上京区多門町４４５", "no": 74, "auxiliary_storage_symbol_char_f": null }, "geometry": { "type": "Point", "coordinates": [ 135.7470411, 35.0251907 ] } },
{ "type": "Feature", "properties": { "fid": 75, "id": 75, "name": "ファミリーマート かどの七条店", "rename": null, "lon": 135.7201302, "lat": 34.9877889, "address": "日本、〒615-0827 京都府京都市右京区西京極南方町７０", "no": 75, "auxiliary_storage_symbol_char_f": null }, "geometry": { "type": "Point", "coordinates": [ 135.7201302, 34.9877889 ] } },
{ "type": "Feature", "properties": { "fid": 76, "id": 76, "name": "ファミリーマート 難波中店", "rename": null, "lon": 135.500699, "lat": 34.663252, "address": "日本、〒556-0011 大阪府大阪市浪速区難波中１丁目１８?１６", "no": 76, "auxiliary_storage_symbol_char_f": null }, "geometry": { "type": "Point", "coordinates": [ 135.500699, 34.663252 ] } },
{ "type": "Feature", "properties": { "fid": 77, "id": 77, "name": "ファミリーマート 博労町三丁目店", "rename": null, "lon": 135.501593, "lat": 34.678064, "address": "日本、〒541-0059 大阪府大阪市中央区博労町３丁目３?１", "no": 77, "auxiliary_storage_symbol_char_f": null }, "geometry": { "type": "Point", "coordinates": [ 135.501593, 34.678064 ] } },
{ "type": "Feature", "properties": { "fid": 78, "id": 78, "name": "ファミリーマート 茨木別院町店", "rename": null, "lon": 135.5745569, "lat": 34.8166717, "address": "日本、〒567-0817 大阪府茨木市別院町４?１", "no": 78, "auxiliary_storage_symbol_char_f": null }, "geometry": { "type": "Point", "coordinates": [ 135.5745569, 34.8166717 ] } },
{ "type": "Feature", "properties": { "fid": 79, "id": 79, "name": "ファミリーマート 深江橋駅前店", "rename": null, "lon": 135.5578108, "lat": 34.6794419, "address": "日本、〒536-0022 大阪府大阪市城東区永田４丁目１７", "no": 79, "auxiliary_storage_symbol_char_f": null }, "geometry": { "type": "Point", "coordinates": [ 135.5578108, 34.6794419 ] } },
{ "type": "Feature", "properties": { "fid": 80, "id": 80, "name": "ファミリーマート 四条猪熊店", "rename": null, "lon": 135.7502561, "lat": 35.0034619, "address": "日本、〒600-8490 京都府京都市下京区四条通大宮東入立中町５０２", "no": 80, "auxiliary_storage_symbol_char_f": null }, "geometry": { "type": "Point", "coordinates": [ 135.7502561, 35.0034619 ] } },
{ "type": "Feature", "properties": { "fid": 81, "id": 81, "name": "ファミリーマート 茶屋町北店", "rename": null, "lon": 135.499146, "lat": 34.708014, "address": "日本、〒530-0013 大阪府大阪市北区茶屋町１５?３０ ファミリーマート茶屋町北店", "no": 81, "auxiliary_storage_symbol_char_f": null }, "geometry": { "type": "Point", "coordinates": [ 135.499146, 34.708014 ] } },
{ "type": "Feature", "properties": { "fid": 82, "id": 82, "name": "ファミリーマート 西大路五条店", "rename": null, "lon": 135.732686, "lat": 34.994923, "address": "日本、〒615-0042 京都府京都市右京区西院東中水町１３?１", "no": 82, "auxiliary_storage_symbol_char_f": null }, "geometry": { "type": "Point", "coordinates": [ 135.732686, 34.994923 ] } },
{ "type": "Feature", "properties": { "fid": 83, "id": 83, "name": "ファミリーマート 地下鉄平野駅前店", "rename": null, "lon": 135.5492935, "lat": 34.6209999, "address": "日本、〒547-0044 大阪府大阪市平野区平野本町２丁目１０?２５", "no": 83, "auxiliary_storage_symbol_char_f": null }, "geometry": { "type": "Point", "coordinates": [ 135.5492935, 34.6209999 ] } },
{ "type": "Feature", "properties": { "fid": 84, "id": 84, "name": "ファミリーマート 東淀川豊新店", "rename": null, "lon": 135.5257186, "lat": 34.7423024, "address": "日本、〒533-0014 大阪府大阪市東淀川区豊新２丁目１３?２", "no": 84, "auxiliary_storage_symbol_char_f": null }, "geometry": { "type": "Point", "coordinates": [ 135.5257186, 34.7423024 ] } },
{ "type": "Feature", "properties": { "fid": 85, "id": 85, "name": "ファミリーマート スバル森小路店", "rename": null, "lon": 135.5490806, "lat": 34.7229257, "address": "日本、〒535-0013 大阪府大阪市旭区森小路２丁目１?１１", "no": 85, "auxiliary_storage_symbol_char_f": null }, "geometry": { "type": "Point", "coordinates": [ 135.5490806, 34.7229257 ] } },
{ "type": "Feature", "properties": { "fid": 86, "id": 86, "name": "ファミリーマート 京都タワー前店", "rename": null, "lon": 135.7599619, "lat": 34.9878756, "address": "日本、〒600-8216 京都府京都市下京区東塩小路町７３０", "no": 86, "auxiliary_storage_symbol_char_f": null }, "geometry": { "type": "Point", "coordinates": [ 135.7599619, 34.9878756 ] } },
{ "type": "Feature", "properties": { "fid": 87, "id": 87, "name": "ファミリーマート 近鉄京都駅３番ホーム前店", "rename": null, "lon": 135.7578638, "lat": 34.9847726, "address": "日本、〒600-8215 京都府京都市下京区東塩小路釜殿町１９", "no": 87, "auxiliary_storage_symbol_char_f": null }, "geometry": { "type": "Point", "coordinates": [ 135.7578638, 34.9847726 ] } },
{ "type": "Feature", "properties": { "fid": 88, "id": 88, "name": "ファミリーマート 四条堺町店", "rename": null, "lon": 135.7629439, "lat": 35.0034954, "address": "日本、〒600-8006 京都府京都市下京区立売中之町四条通高倉東入８９", "no": 88, "auxiliary_storage_symbol_char_f": null }, "geometry": { "type": "Point", "coordinates": [ 135.76294390000001, 35.0034954 ] } },
{ "type": "Feature", "properties": { "fid": 89, "id": 89, "name": "ファミリーマート 伏見横大路店", "rename": null, "lon": 135.742242, "lat": 34.930597, "address": "日本、〒612-8292 京都府京都市伏見区横大路朱雀１１?１", "no": 89, "auxiliary_storage_symbol_char_f": null }, "geometry": { "type": "Point", "coordinates": [ 135.742242, 34.930597 ] } },
{ "type": "Feature", "properties": { "fid": 90, "id": 90, "name": "ファミマ!! 小浦なんばパークス店", "rename": null, "lon": 135.5014411, "lat": 34.6619013, "address": "日本、〒556-0011 大阪府大阪市浪速区難波中２丁目１０?７０ ザ・なんばタワーレジデンス・イン・なんばパークス １９階", "no": 90, "auxiliary_storage_symbol_char_f": null }, "geometry": { "type": "Point", "coordinates": [ 135.5014411, 34.6619013 ] } },
{ "type": "Feature", "properties": { "fid": 91, "id": 91, "name": "ファミリーマート 阪急大井町ガーデン店", "rename": null, "lon": 139.7344167, "lat": 35.6054111, "address": "日本、〒140-0014 東京都品川区大井１丁目５０?５", "no": 91, "auxiliary_storage_symbol_char_f": null }, "geometry": { "type": "Point", "coordinates": [ 139.7344167, 35.6054111 ] } },
{ "type": "Feature", "properties": { "fid": 92, "id": 92, "name": "ファミリーマート ヴィーナスフォート店", "rename": null, "lon": 139.7812508, "lat": 35.6252911, "address": "日本、〒135-0064 東京都江東区青海１丁目３?１５", "no": 92, "auxiliary_storage_symbol_char_f": null }, "geometry": { "type": "Point", "coordinates": [ 139.7812508, 35.6252911 ] } },
{ "type": "Feature", "properties": { "fid": 93, "id": 93, "name": "ファミリーマート 八重洲地下街店", "rename": null, "lon": 139.7693944, "lat": 35.6807822, "address": "日本、〒100-0005 東京都千代田区丸の内１丁目９ 東京駅", "no": 93, "auxiliary_storage_symbol_char_f": null }, "geometry": { "type": "Point", "coordinates": [ 139.76939440000001, 35.6807822 ] } },
{ "type": "Feature", "properties": { "fid": 94, "id": 94, "name": "ファミリーマート 西天満四丁目店", "rename": null, "lon": 135.5060132, "lat": 34.6963916, "address": "日本、〒530-0047 大阪府大阪市北区西天満４丁目２?１", "no": 94, "auxiliary_storage_symbol_char_f": null }, "geometry": { "type": "Point", "coordinates": [ 135.506013200000012, 34.6963916 ] } },
{ "type": "Feature", "properties": { "fid": 95, "id": 95, "name": "ファミリーマート ＥＸＰＡＳＡ御在所上り店", "rename": null, "lon": 136.5906495, "lat": 35.0192021, "address": "日本、〒512-0906 三重県四日市市山之一色町１５６９?２", "no": 95, "auxiliary_storage_symbol_char_f": null }, "geometry": { "type": "Point", "coordinates": [ 136.590649500000012, 35.0192021 ] } },
{ "type": "Feature", "properties": { "fid": 96, "id": 96, "name": "ファミリーマート 京阪三条店", "rename": null, "lon": 135.77326, "lat": 35.009298, "address": "日本、〒605-0009 京都府京都市東山区大橋町１０４?１", "no": 96, "auxiliary_storage_symbol_char_f": null }, "geometry": { "type": "Point", "coordinates": [ 135.77326, 35.009298 ] } },
{ "type": "Feature", "properties": { "fid": 97, "id": 97, "name": "ファミリーマート 長浜豊公園前店", "rename": null, "lon": 136.2646053, "lat": 35.3773566, "address": "日本、〒526-0065 滋賀県長浜市公園町８?５７", "no": 97, "auxiliary_storage_symbol_char_f": null }, "geometry": { "type": "Point", "coordinates": [ 136.2646053, 35.3773566 ] } },
{ "type": "Feature", "properties": { "fid": 98, "id": 98, "name": "ファミリーマート 台東入谷駅前店", "rename": null, "lon": 139.784567, "lat": 35.7201454, "address": "日本、〒110-0013 東京都台東区入谷１丁目６?６", "no": 98, "auxiliary_storage_symbol_char_f": null }, "geometry": { "type": "Point", "coordinates": [ 139.784567, 35.7201454 ] } },
{ "type": "Feature", "properties": { "fid": 99, "id": 99, "name": "ファミリーマート 西浅草一丁目店", "rename": null, "lon": 139.791795, "lat": 35.711541, "address": "日本、〒111-0035 東京都台東区西浅草１丁目８?１３", "no": 99, "auxiliary_storage_symbol_char_f": null }, "geometry": { "type": "Point", "coordinates": [ 139.791795, 35.711541 ] } },
{ "type": "Feature", "properties": { "fid": 100, "id": 100, "name": "ファミリーマート 高崎駅西口店", "rename": null, "lon": 139.010973, "lat": 36.322689, "address": "日本、〒370-0849 群馬県高崎市八島町２４?２", "no": 100, "auxiliary_storage_symbol_char_f": null }, "geometry": { "type": "Point", "coordinates": [ 139.010973, 36.322689 ] } },
{ "type": "Feature", "properties": { "fid": 101, "id": 101, "name": "ファミリーマート 大宮仲町一丁目店", "rename": null, "lon": 139.625762, "lat": 35.905287, "address": "日本、〒330-0845 埼玉県さいたま市大宮区仲町１丁目５３", "no": 101, "auxiliary_storage_symbol_char_f": null }, "geometry": { "type": "Point", "coordinates": [ 139.625762, 35.905287 ] } },
{ "type": "Feature", "properties": { "fid": 102, "id": 102, "name": "ファミリーマート 上野センターモール店", "rename": null, "lon": 139.77441, "lat": 35.7091211, "address": "日本、〒110-0005 東京都台東区上野４丁目７?２", "no": 102, "auxiliary_storage_symbol_char_f": null }, "geometry": { "type": "Point", "coordinates": [ 139.77441, 35.7091211 ] } },
{ "type": "Feature", "properties": { "fid": 103, "id": 103, "name": "ファミリーマート Ｂ．Ｓガレリア店", "rename": null, "lon": 139.7966261, "lat": 35.6313832, "address": "日本、〒135-0063 東京都江東区有明３丁目１０?１ 東京ビッグサイト東展示棟ガレリア", "no": 103, "auxiliary_storage_symbol_char_f": null }, "geometry": { "type": "Point", "coordinates": [ 139.7966261, 35.6313832 ] } },
{ "type": "Feature", "properties": { "fid": 104, "id": 104, "name": "ファミリーマート 神保町さくら通り店", "rename": null, "lon": 139.7574485, "lat": 35.695351, "address": "日本、〒101-0051 東京都千代田区神田神保町２丁目１３?１", "no": 104, "auxiliary_storage_symbol_char_f": null }, "geometry": { "type": "Point", "coordinates": [ 139.75744850000001, 35.695351 ] } },
{ "type": "Feature", "properties": { "fid": 105, "id": 105, "name": "ファミリーマート 渋谷桜丘町店", "rename": null, "lon": 139.7009122, "lat": 35.6569325, "address": "日本、〒150-0031 東京都渋谷区桜丘町２４?１", "no": 105, "auxiliary_storage_symbol_char_f": null }, "geometry": { "type": "Point", "coordinates": [ 139.7009122, 35.6569325 ] } },
{ "type": "Feature", "properties": { "fid": 106, "id": 106, "name": "ファミリーマート 調布駅南口店", "rename": null, "lon": 139.5441477, "lat": 35.6508433, "address": "日本、〒182-0024 東京都調布市布田４丁目１６?１", "no": 106, "auxiliary_storage_symbol_char_f": null }, "geometry": { "type": "Point", "coordinates": [ 139.5441477, 35.6508433 ] } },
{ "type": "Feature", "properties": { "fid": 107, "id": 107, "name": "ファミリーマート 西調布駅前店", "rename": null, "lon": 139.5304019, "lat": 35.656729, "address": "日本、〒182-0035 東京都調布市上石原２丁目３３?２", "no": 107, "auxiliary_storage_symbol_char_f": null }, "geometry": { "type": "Point", "coordinates": [ 139.530401899999987, 35.656729 ] } },
{ "type": "Feature", "properties": { "fid": 108, "id": 108, "name": "ファミリーマート 熱海駅前店", "rename": null, "lon": 139.07821, "lat": 35.102837, "address": "日本、〒413-0011 静岡県熱海市田原本町８?６", "no": 108, "auxiliary_storage_symbol_char_f": null }, "geometry": { "type": "Point", "coordinates": [ 139.07821, 35.102837 ] } },
{ "type": "Feature", "properties": { "fid": 109, "id": 109, "name": "ファミリーマート 近鉄名古屋駅１番ホーム前店", "rename": null, "lon": 136.8833744, "lat": 35.1696626, "address": "日本、〒450-0002 愛知県名古屋市中村区名駅１丁目１ 名古屋駅広小路口（バス）", "no": 109, "auxiliary_storage_symbol_char_f": null }, "geometry": { "type": "Point", "coordinates": [ 136.8833744, 35.1696626 ] } },
{ "type": "Feature", "properties": { "fid": 110, "id": 110, "name": "ファミリーマート ＪＲ四日市駅前店", "rename": null, "lon": 136.6269058, "lat": 34.9613131, "address": "日本、〒510-0061 三重県四日市市朝日町６?６", "no": 110, "auxiliary_storage_symbol_char_f": null }, "geometry": { "type": "Point", "coordinates": [ 136.6269058, 34.9613131 ] } },
{ "type": "Feature", "properties": { "fid": 111, "id": 111, "name": "ファミリーマート 草津野村六丁目店", "rename": null, "lon": 135.9526546, "lat": 35.0277824, "address": "日本、〒525-0027 滋賀県草津市野村６丁目３?１７", "no": 111, "auxiliary_storage_symbol_char_f": null }, "geometry": { "type": "Point", "coordinates": [ 135.952654599999988, 35.0277824 ] } },
{ "type": "Feature", "properties": { "fid": 112, "id": 112, "name": "ファミリーマート 豊津駅前店", "rename": null, "lon": 135.509997, "lat": 34.764227, "address": "日本、〒564-0073 大阪府吹田市山手町２丁目６?３", "no": 112, "auxiliary_storage_symbol_char_f": null }, "geometry": { "type": "Point", "coordinates": [ 135.509997, 34.764227 ] } },
{ "type": "Feature", "properties": { "fid": 113, "id": 113, "name": "ファミリーマート 竹田久保町店", "rename": null, "lon": 135.7633077, "lat": 34.9632709, "address": "日本、〒612-8403 京都府京都市伏見区深草ヲカヤ町２９ 2F", "no": 113, "auxiliary_storage_symbol_char_f": null }, "geometry": { "type": "Point", "coordinates": [ 135.763307700000013, 34.9632709 ] } },
{ "type": "Feature", "properties": { "fid": 114, "id": 114, "name": "ファミリーマート 綾部駅前通店", "rename": null, "lon": 135.2514469, "lat": 35.3008786, "address": "日本、〒623-0066 京都府綾部市駅前通３９?２", "no": 114, "auxiliary_storage_symbol_char_f": null }, "geometry": { "type": "Point", "coordinates": [ 135.2514469, 35.3008786 ] } },
{ "type": "Feature", "properties": { "fid": 115, "id": 115, "name": "ファミリーマート 小浦北新地店", "rename": null, "lon": 135.496621, "lat": 34.698123, "address": "日本、〒530-0002 大阪府大阪市北区曾根崎新地１丁目４?２１ 加州大阪ビルディング 3F", "no": 115, "auxiliary_storage_symbol_char_f": null }, "geometry": { "type": "Point", "coordinates": [ 135.496621, 34.698123 ] } },
{ "type": "Feature", "properties": { "fid": 116, "id": 116, "name": "ファミリーマート 塩尻金塚店", "rename": null, "lon": 137.9515846, "lat": 36.143953, "address": "日本、〒399-0702 長野県塩尻市広丘野村１０２６?１", "no": 116, "auxiliary_storage_symbol_char_f": null }, "geometry": { "type": "Point", "coordinates": [ 137.9515846, 36.143953 ] } },
{ "type": "Feature", "properties": { "fid": 117, "id": 117, "name": "ファミリーマート 水戸駅北口店", "rename": null, "lon": 140.4766779, "lat": 36.371279, "address": "日本、〒310-0015 茨城県水戸市宮町１丁目１?２?４", "no": 117, "auxiliary_storage_symbol_char_f": null }, "geometry": { "type": "Point", "coordinates": [ 140.4766779, 36.371279 ] } },
{ "type": "Feature", "properties": { "fid": 118, "id": 118, "name": "ファミリーマート 入谷二丁目店", "rename": null, "lon": 139.7890196, "lat": 35.7184313, "address": "日本、〒110-0013 東京都台東区入谷２丁目１?８", "no": 118, "auxiliary_storage_symbol_char_f": null }, "geometry": { "type": "Point", "coordinates": [ 139.789019599999989, 35.7184313 ] } },
{ "type": "Feature", "properties": { "fid": 119, "id": 119, "name": "ファミリーマート 高槻グリーンプラザ店", "rename": null, "lon": 135.6190337, "lat": 34.8516571, "address": "日本、〒569-0804 大阪府高槻市紺屋町１?１ グリーンプラザたかつき１号館", "no": 119, "auxiliary_storage_symbol_char_f": null }, "geometry": { "type": "Point", "coordinates": [ 135.619033699999989, 34.8516571 ] } },
{ "type": "Feature", "properties": { "fid": 120, "id": 120, "name": "ファミリーマート 南港トラックターミナル店", "rename": null, "lon": 135.4388382, "lat": 34.6215178, "address": "日本、〒559-0031 大阪府大阪市住之江区南港東４丁目１０?１０８", "no": 120, "auxiliary_storage_symbol_char_f": null }, "geometry": { "type": "Point", "coordinates": [ 135.4388382, 34.6215178 ] } },
{ "type": "Feature", "properties": { "fid": 121, "id": 121, "name": "ファミリーマート ＪＲ小倉駅改札口店", "rename": null, "lon": 130.8822545, "lat": 33.8867229, "address": "日本、〒802-0001 福岡県北九州市小倉北区浅野１丁目１?１", "no": 121, "auxiliary_storage_symbol_char_f": null }, "geometry": { "type": "Point", "coordinates": [ 130.882254499999988, 33.8867229 ] } },
{ "type": "Feature", "properties": { "fid": 122, "id": 122, "name": "ファミリーマート 博多駅中央通路店", "rename": null, "lon": 130.4207276, "lat": 33.5899254, "address": "日本、〒812-0012 福岡県福岡市博多区博多駅中央街１?１ ５Ｆ", "no": 122, "auxiliary_storage_symbol_char_f": null }, "geometry": { "type": "Point", "coordinates": [ 130.4207276, 33.5899254 ] } },
{ "type": "Feature", "properties": { "fid": 123, "id": 123, "name": "ファミリーマート ＪＲ佐世保駅店", "rename": null, "lon": 129.7259389, "lat": 33.1638899, "address": "日本、〒857-0863 長崎県佐世保市三浦町２１?１", "no": 123, "auxiliary_storage_symbol_char_f": null }, "geometry": { "type": "Point", "coordinates": [ 129.725938899999989, 33.1638899 ] } },
{ "type": "Feature", "properties": { "fid": 124, "id": 124, "name": "ファミリーマート 長崎出島店", "rename": null, "lon": 129.8745411, "lat": 32.7426059, "address": "日本、〒850-0862 長崎県長崎市出島町１５?７", "no": 124, "auxiliary_storage_symbol_char_f": null }, "geometry": { "type": "Point", "coordinates": [ 129.874541099999988, 32.7426059 ] } },
{ "type": "Feature", "properties": { "fid": 125, "id": 125, "name": "ファミリーマート 長崎グラバー通り店", "rename": null, "lon": 129.8694969, "lat": 32.7359127, "address": "日本、〒850-0931 長崎県長崎市南山手町２?３３", "no": 125, "auxiliary_storage_symbol_char_f": null }, "geometry": { "type": "Point", "coordinates": [ 129.8694969, 32.7359127 ] } },
{ "type": "Feature", "properties": { "fid": 126, "id": 126, "name": "ファミリーマート ＪＲ長崎駅店", "rename": null, "lon": 129.8715195, "lat": 32.7517602, "address": "日本、〒850-0058 長崎県長崎市尾上町１?１", "no": 126, "auxiliary_storage_symbol_char_f": null }, "geometry": { "type": "Point", "coordinates": [ 129.8715195, 32.7517602 ] } },
{ "type": "Feature", "properties": { "fid": 127, "id": 127, "name": "ファミリーマート 戸畑沖台二丁目店", "rename": null, "lon": 130.822487, "lat": 33.89288, "address": "日本、〒804-0064 福岡県北九州市戸畑区沖台２丁目８?１８", "no": 127, "auxiliary_storage_symbol_char_f": null }, "geometry": { "type": "Point", "coordinates": [ 130.822487, 33.89288 ] } },
{ "type": "Feature", "properties": { "fid": 128, "id": 128, "name": "ファミリーマート ＪＲ熊本駅店", "rename": null, "lon": 130.6894302, "lat": 32.790161, "address": "日本、〒860-0047 熊本県熊本市西区春日３丁目１５", "no": 128, "auxiliary_storage_symbol_char_f": null }, "geometry": { "type": "Point", "coordinates": [ 130.6894302, 32.790161 ] } },
{ "type": "Feature", "properties": { "fid": 129, "id": 129, "name": "ファミリーマート メトロ博多筑紫口店", "rename": null, "lon": 130.4215355, "lat": 33.5903032, "address": "日本、〒812-0012 福岡県福岡市博多区博多駅中央街１ 地下鉄博多駅(筑紫口)構内 ファミリーマートメトロ博多筑紫口店", "no": 129, "auxiliary_storage_symbol_char_f": null }, "geometry": { "type": "Point", "coordinates": [ 130.4215355, 33.5903032 ] } },
{ "type": "Feature", "properties": { "fid": 130, "id": 130, "name": "ファミリーマート 博多駅中央改札口店", "rename": null, "lon": 130.4204599, "lat": 33.5898031, "address": "日本、〒812-0012 福岡県福岡市博多区博多駅中央街１?１", "no": 130, "auxiliary_storage_symbol_char_f": null }, "geometry": { "type": "Point", "coordinates": [ 130.4204599, 33.5898031 ] } },
{ "type": "Feature", "properties": { "fid": 131, "id": 131, "name": "ファミリーマート ＪＲ戸畑駅店", "rename": null, "lon": 130.820851, "lat": 33.897002, "address": "日本、〒804-0067 福岡県北九州市戸畑区汐井町１?１", "no": 131, "auxiliary_storage_symbol_char_f": null }, "geometry": { "type": "Point", "coordinates": [ 130.820851, 33.897002 ] } },
{ "type": "Feature", "properties": { "fid": 132, "id": 132, "name": "ファミリーマート 小倉駅新幹線口店", "rename": null, "lon": 130.8823425, "lat": 33.8877673, "address": "日本、〒802-0001 福岡県北九州市小倉北区浅野１丁目２ ＪＲ九州小倉駅北口ビル", "no": 132, "auxiliary_storage_symbol_char_f": null }, "geometry": { "type": "Point", "coordinates": [ 130.8823425, 33.8877673 ] } },
{ "type": "Feature", "properties": { "fid": 133, "id": 133, "name": "ファミリーマート 高木浜一丁目店", "rename": null, "lon": 136.0609051, "lat": 35.4581561, "address": "日本、〒520-1813 滋賀県高島市マキノ町高木浜１丁目９?２", "no": 133, "auxiliary_storage_symbol_char_f": null }, "geometry": { "type": "Point", "coordinates": [ 136.060905100000014, 35.4581561 ] } },
{ "type": "Feature", "properties": { "fid": 134, "id": 134, "name": "ファミリーマート 三宮店", "rename": null, "lon": 135.194122, "lat": 34.692785, "address": "日本、〒650-0021 兵庫県神戸市中央区三宮町１丁目７?１９ 北星ビル 4F 5F", "no": 134, "auxiliary_storage_symbol_char_f": null }, "geometry": { "type": "Point", "coordinates": [ 135.194122, 34.692785 ] } },
{ "type": "Feature", "properties": { "fid": 135, "id": 135, "name": "ファミリーマート Ｕライン三宮花時計前駅売店", "rename": null, "lon": 135.1954208, "lat": 34.6917428, "address": "日本、〒651-0087 兵庫県神戸市中央区御幸通８丁目１?３１７", "no": 135, "auxiliary_storage_symbol_char_f": null }, "geometry": { "type": "Point", "coordinates": [ 135.1954208, 34.6917428 ] } },
{ "type": "Feature", "properties": { "fid": 136, "id": 136, "name": "ファミリーマート 松江東朝日町店", "rename": null, "lon": 133.0657014, "lat": 35.4632133, "address": "日本、〒690-0001 島根県松江市東朝日町８８?５", "no": 136, "auxiliary_storage_symbol_char_f": null }, "geometry": { "type": "Point", "coordinates": [ 133.0657014, 35.4632133 ] } },
{ "type": "Feature", "properties": { "fid": 137, "id": 137, "name": "ファミリーマート 倉吉駅前通り店", "rename": null, "lon": 133.849009, "lat": 35.451441, "address": "日本、〒682-0023 鳥取県倉吉市山根６２０?１", "no": 137, "auxiliary_storage_symbol_char_f": null }, "geometry": { "type": "Point", "coordinates": [ 133.849009, 35.451441 ] } },
{ "type": "Feature", "properties": { "fid": 138, "id": 138, "name": "ファミリーマート ＪＲ西宮駅北口店", "rename": null, "lon": 135.347969, "lat": 34.739849, "address": "日本、〒662-0844 兵庫県西宮市西福町６?１", "no": 138, "auxiliary_storage_symbol_char_f": null }, "geometry": { "type": "Point", "coordinates": [ 135.347969, 34.739849 ] } },
{ "type": "Feature", "properties": { "fid": 139, "id": 139, "name": "ファミリーマート ＪＲ西宮駅南店", "rename": null, "lon": 135.3472895, "lat": 34.7384034, "address": "日本、〒662-0911 兵庫県西宮市池田町９?７", "no": 139, "auxiliary_storage_symbol_char_f": null }, "geometry": { "type": "Point", "coordinates": [ 135.347289499999988, 34.7384034 ] } },
{ "type": "Feature", "properties": { "fid": 140, "id": 140, "name": "ファミリーマート 阪神西宮駅東店", "rename": null, "lon": 135.3407939, "lat": 34.7365024, "address": "日本、〒662-0918 兵庫県西宮市六湛寺町１１?１７", "no": 140, "auxiliary_storage_symbol_char_f": null }, "geometry": { "type": "Point", "coordinates": [ 135.3407939, 34.7365024 ] } },
{ "type": "Feature", "properties": { "fid": 141, "id": 141, "name": "ファミリーマート 仙台駅前店", "rename": null, "lon": 140.8798586, "lat": 38.2594497, "address": "日本、〒980-0021 宮城県仙台市青葉区中央１丁目１０?１０ 仙台駅", "no": 141, "auxiliary_storage_symbol_char_f": null }, "geometry": { "type": "Point", "coordinates": [ 140.8798586, 38.2594497 ] } },
{ "type": "Feature", "properties": { "fid": 142, "id": 142, "name": "ファミリーマート 仙台中央二丁目店", "rename": null, "lon": 140.8786632, "lat": 38.2614484, "address": "日本、〒980-0021 宮城県仙台市青葉区中央２丁目１?３０ ファミリーマート仙台中央二丁目店", "no": 142, "auxiliary_storage_symbol_char_f": null }, "geometry": { "type": "Point", "coordinates": [ 140.8786632, 38.2614484 ] } },
{ "type": "Feature", "properties": { "fid": 143, "id": 143, "name": "ファミリーマート 八戸十六日町店", "rename": null, "lon": 141.49048, "lat": 40.50818, "address": "日本、〒031-0043 青森県八戸市十六日町２５?１", "no": 143, "auxiliary_storage_symbol_char_f": null }, "geometry": { "type": "Point", "coordinates": [ 141.49048, 40.50818 ] } },
{ "type": "Feature", "properties": { "fid": 144, "id": 144, "name": "ファミリーマート 八戸三日町店", "rename": null, "lon": 141.490035, "lat": 40.509543, "address": "日本、〒031-0032 青森県八戸市三日町５", "no": 144, "auxiliary_storage_symbol_char_f": null }, "geometry": { "type": "Point", "coordinates": [ 141.490035, 40.509543 ] } },
{ "type": "Feature", "properties": { "fid": 145, "id": 145, "name": "ファミリーマート 仙台駅店", "rename": null, "lon": 140.8804523, "lat": 38.2601495, "address": "日本、〒980-0021 宮城県仙台市青葉区中央１丁目１０?１０", "no": 145, "auxiliary_storage_symbol_char_f": null }, "geometry": { "type": "Point", "coordinates": [ 140.8804523, 38.2601495 ] } },
{ "type": "Feature", "properties": { "fid": 146, "id": 146, "name": "ファミリーマート 広瀬通一番町店", "rename": null, "lon": 140.872192, "lat": 38.262838, "address": "日本、〒980-0811 宮城県仙台市青葉区一番町４丁目２?２", "no": 146, "auxiliary_storage_symbol_char_f": null }, "geometry": { "type": "Point", "coordinates": [ 140.872192, 38.262838 ] } },
{ "type": "Feature", "properties": { "fid": 147, "id": 147, "name": "ファミリーマート 一番町三丁目店", "rename": null, "lon": 140.871645, "lat": 38.260852, "address": "日本、〒980-0811 宮城県仙台市青葉区一番町３丁目４?番26号", "no": 147, "auxiliary_storage_symbol_char_f": null }, "geometry": { "type": "Point", "coordinates": [ 140.871645, 38.260852 ] } },
{ "type": "Feature", "properties": { "fid": 148, "id": 148, "name": "ファミリーマート 宮町四丁目店", "rename": null, "lon": 140.884201, "lat": 38.276089, "address": "日本、〒980-0004 宮城県仙台市青葉区宮町４丁目６?２４", "no": 148, "auxiliary_storage_symbol_char_f": null }, "geometry": { "type": "Point", "coordinates": [ 140.884201, 38.276089 ] } },
{ "type": "Feature", "properties": { "fid": 149, "id": 149, "name": "ファミリーマート 山形駅東口店", "rename": null, "lon": 140.329356, "lat": 38.248, "address": "日本、〒990-0039 山形県山形市香澄町１丁目３?１４", "no": 149, "auxiliary_storage_symbol_char_f": null }, "geometry": { "type": "Point", "coordinates": [ 140.329356, 38.248 ] } },
{ "type": "Feature", "properties": { "fid": 150, "id": 150, "name": "ファミリーマート 西浅草三丁目店", "rename": null, "lon": 139.7909, "lat": 35.717482, "address": "日本、〒111-0035 東京都台東区西浅草３丁目２９?２２", "no": 150, "auxiliary_storage_symbol_char_f": null }, "geometry": { "type": "Point", "coordinates": [ 139.7909, 35.717482 ] } },
{ "type": "Feature", "properties": { "fid": 151, "id": 151, "name": "ファミリーマート 田辺つぶり坂店", "rename": null, "lon": 135.386922, "lat": 33.730315, "address": "日本、〒646-0031 和歌山県田辺市湊４９?７６０?３", "no": 151, "auxiliary_storage_symbol_char_f": null }, "geometry": { "type": "Point", "coordinates": [ 135.386922, 33.730315 ] } },
{ "type": "Feature", "properties": { "fid": 152, "id": 152, "name": "ファミリーマート 山陽姫路駅前店", "rename": null, "lon": 134.689133, "lat": 34.828734, "address": "日本、〒670-0912 兵庫県姫路市南町５ ファミリーマート山陽姫路駅前店", "no": 152, "auxiliary_storage_symbol_char_f": null }, "geometry": { "type": "Point", "coordinates": [ 134.689133, 34.828734 ] } },
{ "type": "Feature", "properties": { "fid": 153, "id": 153, "name": "ファミリーマート 姫路みゆき通店", "rename": null, "lon": 134.691727, "lat": 34.8295542, "address": "日本、〒670-0927 兵庫県姫路市駅前町３４１", "no": 153, "auxiliary_storage_symbol_char_f": null }, "geometry": { "type": "Point", "coordinates": [ 134.691727, 34.8295542 ] } },
{ "type": "Feature", "properties": { "fid": 154, "id": 154, "name": "ファミリーマート 龍谷大学店", "rename": null, "lon": 135.9411633, "lat": 34.9633608, "address": "日本、〒520-2123 滋賀県大津市瀬田大江町１?５", "no": 154, "auxiliary_storage_symbol_char_f": null }, "geometry": { "type": "Point", "coordinates": [ 135.9411633, 34.9633608 ] } },
{ "type": "Feature", "properties": { "fid": 155, "id": 155, "name": "ファミリーマート 名張鴻之台店", "rename": null, "lon": 136.1088789, "lat": 34.6265795, "address": "日本、〒518-0701 三重県名張市鴻之台１番町１８８", "no": 155, "auxiliary_storage_symbol_char_f": null }, "geometry": { "type": "Point", "coordinates": [ 136.1088789, 34.6265795 ] } },
{ "type": "Feature", "properties": { "fid": 156, "id": 156, "name": "ファミリーマート 難波中二丁目店", "rename": null, "lon": 135.5048054, "lat": 34.6615545, "address": "日本、〒556-0011 大阪府大阪市浪速区難波中２丁目５?８", "no": 156, "auxiliary_storage_symbol_char_f": null }, "geometry": { "type": "Point", "coordinates": [ 135.5048054, 34.6615545 ] } },
{ "type": "Feature", "properties": { "fid": 157, "id": 157, "name": "ファミリーマート 近鉄学園前駅２番ホーム中央店", "rename": null, "lon": 135.7500768, "lat": 34.6969076, "address": "日本、〒631-0034 奈良県奈良市学園南３丁目１?２", "no": 157, "auxiliary_storage_symbol_char_f": null }, "geometry": { "type": "Point", "coordinates": [ 135.750076799999988, 34.6969076 ] } },
{ "type": "Feature", "properties": { "fid": 158, "id": 158, "name": "ファミリーマート ハーバーランド駅店", "rename": null, "lon": 135.1786015, "lat": 34.6787528, "address": "日本、〒650-0044 兵庫県神戸市中央区東川崎町１丁目２ ハーバーランド駅", "no": 158, "auxiliary_storage_symbol_char_f": null }, "geometry": { "type": "Point", "coordinates": [ 135.178601500000013, 34.6787528 ] } },
{ "type": "Feature", "properties": { "fid": 159, "id": 159, "name": "ファミリーマート なんば駅南店", "rename": null, "lon": 135.5002676, "lat": 34.6649797, "address": "日本、〒542-0076 大阪府大阪市中央区難波５丁目３?８?１５", "no": 159, "auxiliary_storage_symbol_char_f": null }, "geometry": { "type": "Point", "coordinates": [ 135.5002676, 34.6649797 ] } },
{ "type": "Feature", "properties": { "fid": 160, "id": 160, "name": "ファミリーマート 駒川中野駅西店", "rename": null, "lon": 135.5324861, "lat": 34.6217056, "address": "日本、〒546-0011 大阪府大阪市東住吉区針中野１丁目１?１", "no": 160, "auxiliary_storage_symbol_char_f": null }, "geometry": { "type": "Point", "coordinates": [ 135.5324861, 34.6217056 ] } },
{ "type": "Feature", "properties": { "fid": 161, "id": 161, "name": "ファミリーマート 近鉄阿部野橋駅西改札内店", "rename": null, "lon": 135.5140349, "lat": 34.6456366, "address": "日本、〒545-0052 大阪府大阪市阿倍野区阿倍野筋１丁目１?４３", "no": 161, "auxiliary_storage_symbol_char_f": null }, "geometry": { "type": "Point", "coordinates": [ 135.514034900000013, 34.6456366 ] } },
{ "type": "Feature", "properties": { "fid": 162, "id": 162, "name": "ファミリーマート 福島二丁目店", "rename": null, "lon": 135.487403, "lat": 34.694071, "address": "日本、〒553-0003 大阪府大阪市福島区福島２丁目２?２４", "no": 162, "auxiliary_storage_symbol_char_f": null }, "geometry": { "type": "Point", "coordinates": [ 135.487403, 34.694071 ] } },
{ "type": "Feature", "properties": { "fid": 163, "id": 163, "name": "ファミリーマート ナダ萬灘南通店", "rename": null, "lon": 135.226672, "lat": 34.708171, "address": "日本、〒657-0841 兵庫県神戸市灘区灘南通４丁目２?１８", "no": 163, "auxiliary_storage_symbol_char_f": null }, "geometry": { "type": "Point", "coordinates": [ 135.226672, 34.708171 ] } },
{ "type": "Feature", "properties": { "fid": 164, "id": 164, "name": "ファミリーマート 阪急御影駅前店", "rename": null, "lon": 135.2531, "lat": 34.724727, "address": "日本、〒658-0047 兵庫県神戸市東灘区御影２丁目１?２", "no": 164, "auxiliary_storage_symbol_char_f": null }, "geometry": { "type": "Point", "coordinates": [ 135.2531, 34.724727 ] } },
{ "type": "Feature", "properties": { "fid": 165, "id": 165, "name": "ファミリーマート イノウエ竹谷店", "rename": null, "lon": 135.406232, "lat": 34.721215, "address": "日本、〒660-0885 兵庫県尼崎市神田南通４丁目１０１?１", "no": 165, "auxiliary_storage_symbol_char_f": null }, "geometry": { "type": "Point", "coordinates": [ 135.406232, 34.721215 ] } },
{ "type": "Feature", "properties": { "fid": 166, "id": 166, "name": "ファミリーマート 京田辺三山木店", "rename": null, "lon": 135.783842, "lat": 34.799364, "address": "日本、〒610-0313 京都府京田辺市三山木田中８丁目４", "no": 166, "auxiliary_storage_symbol_char_f": null }, "geometry": { "type": "Point", "coordinates": [ 135.783842, 34.799364 ] } },
{ "type": "Feature", "properties": { "fid": 167, "id": 167, "name": "ファミリーマート 近鉄新田辺駅前店", "rename": null, "lon": 135.7726014, "lat": 34.8207088, "address": "日本、〒610-0334 京都府京田辺市田辺中央１丁目 新田辺駅（バス）", "no": 167, "auxiliary_storage_symbol_char_f": null }, "geometry": { "type": "Point", "coordinates": [ 135.772601400000013, 34.8207088 ] } },
{ "type": "Feature", "properties": { "fid": 168, "id": 168, "name": "ファミリーマート 湖南岩根店", "rename": null, "lon": 136.1177316, "lat": 35.0012139, "address": "日本、〒520-3254 滋賀県湖南市岩根中央２丁目１６", "no": 168, "auxiliary_storage_symbol_char_f": null }, "geometry": { "type": "Point", "coordinates": [ 136.117731600000013, 35.0012139 ] } },
{ "type": "Feature", "properties": { "fid": 169, "id": 169, "name": "ファミリーマート 新梅田スカイビル前店", "rename": null, "lon": 135.491166, "lat": 34.704239, "address": "日本、〒531-0071 大阪府大阪市北区中津５丁目１?１", "no": 169, "auxiliary_storage_symbol_char_f": null }, "geometry": { "type": "Point", "coordinates": [ 135.491166, 34.704239 ] } },
{ "type": "Feature", "properties": { "fid": 170, "id": 170, "name": "ファミリーマート 大津膳所駅前店", "rename": null, "lon": 135.8822695, "lat": 34.9989663, "address": "日本、〒520-0802 滋賀県大津市馬場３丁目１?１ ファミリーマート大津膳所駅前店", "no": 170, "auxiliary_storage_symbol_char_f": null }, "geometry": { "type": "Point", "coordinates": [ 135.8822695, 34.9989663 ] } },
{ "type": "Feature", "properties": { "fid": 171, "id": 171, "name": "ファミリーマート 浦和東口駅前店", "rename": null, "lon": 139.657597, "lat": 35.8590358, "address": "日本、〒330-0056 埼玉県さいたま市浦和区東仲町１?２３ レンタルスペースホーリィ3F", "no": 171, "auxiliary_storage_symbol_char_f": null }, "geometry": { "type": "Point", "coordinates": [ 139.657597, 35.8590358 ] } },
{ "type": "Feature", "properties": { "fid": 172, "id": 172, "name": "ファミリーマート 根岸うぐいす通り店", "rename": null, "lon": 139.7812602, "lat": 35.7218223, "address": "日本、〒110-0003 東京都台東区根岸３丁目３?１", "no": 172, "auxiliary_storage_symbol_char_f": null }, "geometry": { "type": "Point", "coordinates": [ 139.7812602, 35.7218223 ] } },
{ "type": "Feature", "properties": { "fid": 173, "id": 173, "name": "ファミリーマート かしわや南藤沢店", "rename": null, "lon": 139.488181, "lat": 35.337207, "address": "日本、〒251-0055 神奈川県藤沢市南藤沢２０?２０", "no": 173, "auxiliary_storage_symbol_char_f": null }, "geometry": { "type": "Point", "coordinates": [ 139.488181, 35.337207 ] } },
{ "type": "Feature", "properties": { "fid": 174, "id": 174, "name": "ファミリーマート 富士日乃出町店", "rename": null, "lon": 138.6661409, "lat": 35.1642353, "address": "日本、〒417-0056 静岡県富士市日乃出町１２６?１", "no": 174, "auxiliary_storage_symbol_char_f": null }, "geometry": { "type": "Point", "coordinates": [ 138.666140899999988, 35.1642353 ] } },
{ "type": "Feature", "properties": { "fid": 175, "id": 175, "name": "ファミリーマート 昭和国母店", "rename": null, "lon": 138.549704, "lat": 35.63095, "address": "日本、〒409-3866 山梨県中巨摩郡昭和町西条４１９?２", "no": 175, "auxiliary_storage_symbol_char_f": null }, "geometry": { "type": "Point", "coordinates": [ 138.549704, 35.63095 ] } },
{ "type": "Feature", "properties": { "fid": 176, "id": 176, "name": "ファミリーマート スバル京阪千林店", "rename": null, "lon": 135.555344, "lat": 34.724155, "address": "日本、〒535-0021 大阪府大阪市旭区清水１丁目１８?１８", "no": 176, "auxiliary_storage_symbol_char_f": null }, "geometry": { "type": "Point", "coordinates": [ 135.555344, 34.724155 ] } },
{ "type": "Feature", "properties": { "fid": 177, "id": 177, "name": "ファミリーマート かわちいわふね店", "rename": null, "lon": 135.684442, "lat": 34.775698, "address": "日本、〒576-0033 大阪府交野市私市１丁目１?１０ 河内磐船貸事務所１階", "no": 177, "auxiliary_storage_symbol_char_f": null }, "geometry": { "type": "Point", "coordinates": [ 135.684442, 34.775698 ] } },
{ "type": "Feature", "properties": { "fid": 178, "id": 178, "name": "ファミリーマート 八重洲一丁目店", "rename": null, "lon": 139.7713859, "lat": 35.6817136, "address": "日本、〒103-0028 東京都中央区八重洲１丁目５?９ 加藤ビルデイング 9F", "no": 178, "auxiliary_storage_symbol_char_f": null }, "geometry": { "type": "Point", "coordinates": [ 139.771385900000013, 35.6817136 ] } },
{ "type": "Feature", "properties": { "fid": 179, "id": 179, "name": "ファミリーマート 川越クレアモール店", "rename": null, "lon": 139.4828359, "lat": 35.9114812, "address": "日本、〒350-0043 埼玉県川越市新富町２丁目１２?８", "no": 179, "auxiliary_storage_symbol_char_f": null }, "geometry": { "type": "Point", "coordinates": [ 139.4828359, 35.9114812 ] } },
{ "type": "Feature", "properties": { "fid": 180, "id": 180, "name": "ファミリーマート Ｋ２茶屋町西店", "rename": null, "lon": 135.4983124, "lat": 34.7075639, "address": "日本、〒530-0013 大阪府大阪市北区茶屋町１３?６", "no": 180, "auxiliary_storage_symbol_char_f": null }, "geometry": { "type": "Point", "coordinates": [ 135.4983124, 34.7075639 ] } },
{ "type": "Feature", "properties": { "fid": 181, "id": 181, "name": "ファミリーマート 梅田OPA店", "rename": "ファミリーマート ABC-MART梅田ビル店", "lon": 135.4995476, "lat": 34.7045367, "address": "日本、〒530-0013 大阪府大阪市北区茶屋町１?２７", "no": 181, "auxiliary_storage_symbol_char_f": null }, "geometry": { "type": "Point", "coordinates": [ 135.4995476, 34.7045367 ] } },
{ "type": "Feature", "properties": { "fid": 182, "id": 182, "name": "ファミリーマート 善通寺大麻町店", "rename": null, "lon": 133.8117814, "lat": 34.1990427, "address": "日本、〒765-0052 香川県善通寺市大麻町３８４", "no": 182, "auxiliary_storage_symbol_char_f": null }, "geometry": { "type": "Point", "coordinates": [ 133.8117814, 34.1990427 ] } },
{ "type": "Feature", "properties": { "fid": 183, "id": 183, "name": "ファミリーマート 高知帯屋町店", "rename": null, "lon": 133.539144, "lat": 33.560754, "address": "日本、〒780-0841 高知県高知市帯屋町１丁目１４?１", "no": 183, "auxiliary_storage_symbol_char_f": null }, "geometry": { "type": "Point", "coordinates": [ 133.539144, 33.560754 ] } },
{ "type": "Feature", "properties": { "fid": 184, "id": 184, "name": "ファミリーマート 高知桟橋通店", "rename": null, "lon": 133.549661, "lat": 33.5443922, "address": "日本、〒781-8010 高知県高知市桟橋通４丁目１５?１", "no": 184, "auxiliary_storage_symbol_char_f": null }, "geometry": { "type": "Point", "coordinates": [ 133.549661, 33.5443922 ] } },
{ "type": "Feature", "properties": { "fid": 185, "id": 185, "name": "ファミリーマート 高知日の出町店", "rename": null, "lon": 133.5554035, "lat": 33.5600495, "address": "日本、〒781-0804 高知県高知市日の出町２?２", "no": 185, "auxiliary_storage_symbol_char_f": null }, "geometry": { "type": "Point", "coordinates": [ 133.555403500000011, 33.5600495 ] } },
{ "type": "Feature", "properties": { "fid": 186, "id": 186, "name": "ファミリーマート 札幌南１２条店", "rename": null, "lon": 141.343631, "lat": 43.043575, "address": "日本、〒064-0912 北海道札幌市中央区南１２条西１０丁目３?１８", "no": 186, "auxiliary_storage_symbol_char_f": null }, "geometry": { "type": "Point", "coordinates": [ 141.343631, 43.043575 ] } },
{ "type": "Feature", "properties": { "fid": 187, "id": 187, "name": "ファミリーマート 札幌狸小路６丁目店", "rename": null, "lon": 141.3494781, "lat": 43.0568839, "address": "日本、〒060-0062 北海道札幌市中央区南２条西６丁目３", "no": 187, "auxiliary_storage_symbol_char_f": null }, "geometry": { "type": "Point", "coordinates": [ 141.3494781, 43.0568839 ] } },
{ "type": "Feature", "properties": { "fid": 188, "id": 188, "name": "ファミリーマート 札幌すすきの店", "rename": null, "lon": 141.3538696, "lat": 43.0546273, "address": "日本、〒064-0805 北海道札幌市中央区南５条西３丁目１１?１", "no": 188, "auxiliary_storage_symbol_char_f": null }, "geometry": { "type": "Point", "coordinates": [ 141.3538696, 43.0546273 ] } },
{ "type": "Feature", "properties": { "fid": 189, "id": 189, "name": "ファミリーマート 南１条西５丁目店", "rename": null, "lon": 141.3507824, "lat": 43.0585684, "address": "日本、〒060-0061 北海道札幌市中央区南１条西５丁目１?３", "no": 189, "auxiliary_storage_symbol_char_f": null }, "geometry": { "type": "Point", "coordinates": [ 141.350782400000014, 43.0585684 ] } },
{ "type": "Feature", "properties": { "fid": 190, "id": 190, "name": "ファミリーマート 札幌南２条西４丁目店", "rename": null, "lon": 141.352199, "lat": 43.057774, "address": "日本、〒060-0062 北海道札幌市中央区南２条西４丁目１２?１", "no": 190, "auxiliary_storage_symbol_char_f": null }, "geometry": { "type": "Point", "coordinates": [ 141.352199, 43.057774 ] } },
{ "type": "Feature", "properties": { "fid": 191, "id": 191, "name": "ファミリーマート 堀川綾小路店", "rename": null, "lon": 135.7524559, "lat": 35.0023871, "address": "日本、〒600-8478 京都府京都市下京区西綾小路西半町７２ ファミリーマート堀川綾小路店", "no": 191, "auxiliary_storage_symbol_char_f": null }, "geometry": { "type": "Point", "coordinates": [ 135.7524559, 35.0023871 ] } },
{ "type": "Feature", "properties": { "fid": 192, "id": 192, "name": "ファミリーマート 福井駅前店", "rename": null, "lon": 136.2216822, "lat": 36.0614913, "address": "日本、〒910-0006 福井県福井市中央１丁目１?１１", "no": 192, "auxiliary_storage_symbol_char_f": null }, "geometry": { "type": "Point", "coordinates": [ 136.2216822, 36.0614913 ] } },
{ "type": "Feature", "properties": { "fid": 193, "id": 193, "name": "ファミリーマート 新居浜坂井町店", "rename": null, "lon": 133.291903, "lat": 33.948091, "address": "日本、〒792-0812 愛媛県新居浜市坂井町２丁目２?３０", "no": 193, "auxiliary_storage_symbol_char_f": null }, "geometry": { "type": "Point", "coordinates": [ 133.291903, 33.948091 ] } },
{ "type": "Feature", "properties": { "fid": 194, "id": 194, "name": "ファミリーマート 二番町三丁目店", "rename": null, "lon": 132.768126, "lat": 33.839049, "address": "日本、〒790-0002 愛媛県松山市二番町３丁目４?１０", "no": 194, "auxiliary_storage_symbol_char_f": null }, "geometry": { "type": "Point", "coordinates": [ 132.768126, 33.839049 ] } },
{ "type": "Feature", "properties": { "fid": 195, "id": 195, "name": "ファミリーマート 愛媛県庁前店", "rename": null, "lon": 132.7678417, "lat": 33.8408962, "address": "日本、〒790-0001 愛媛県松山市一番町４丁目１?１１", "no": 195, "auxiliary_storage_symbol_char_f": null }, "geometry": { "type": "Point", "coordinates": [ 132.7678417, 33.8408962 ] } },
{ "type": "Feature", "properties": { "fid": 196, "id": 196, "name": "ファミリーマート 松山本町六丁目店", "rename": null, "lon": 132.7590512, "lat": 33.8514558, "address": "日本、〒790-0811 愛媛県松山市本町６丁目１?１", "no": 196, "auxiliary_storage_symbol_char_f": null }, "geometry": { "type": "Point", "coordinates": [ 132.759051199999988, 33.8514558 ] } },
{ "type": "Feature", "properties": { "fid": 197, "id": 197, "name": "ファミリーマート 本町三丁目店", "rename": null, "lon": 132.7592658, "lat": 33.8466636, "address": "日本、〒790-0811 愛媛県松山市本町３丁目６?５", "no": 197, "auxiliary_storage_symbol_char_f": null }, "geometry": { "type": "Point", "coordinates": [ 132.7592658, 33.8466636 ] } },
{ "type": "Feature", "properties": { "fid": 198, "id": 198, "name": "ファミリーマート 岡山天瀬店", "rename": null, "lon": 133.928053, "lat": 34.656047, "address": "日本、〒700-0833 岡山県岡山市北区天瀬１?番5号", "no": 198, "auxiliary_storage_symbol_char_f": null }, "geometry": { "type": "Point", "coordinates": [ 133.928053, 34.656047 ] } },
{ "type": "Feature", "properties": { "fid": 199, "id": 199, "name": "ファミリーマート 永和駅前店", "rename": null, "lon": 135.5720259, "lat": 34.6637691, "address": "日本、〒577-0843 大阪府東大阪市荒川３丁目５?１０", "no": 199, "auxiliary_storage_symbol_char_f": null }, "geometry": { "type": "Point", "coordinates": [ 135.5720259, 34.6637691 ] } },
{ "type": "Feature", "properties": { "fid": 200, "id": 200, "name": "ファミリーマート サクマ西葛西駅店", "rename": null, "lon": 139.8595321, "lat": 35.6645886, "address": "日本、〒134-0088 東京都江戸川区西葛西６丁目１４?１", "no": 200, "auxiliary_storage_symbol_char_f": null }, "geometry": { "type": "Point", "coordinates": [ 139.8595321, 35.6645886 ] } },
{ "type": "Feature", "properties": { "fid": 201, "id": 201, "name": "ファミリーマート 西葛西駅前店", "rename": null, "lon": 139.8613481, "lat": 35.6642593, "address": "日本、〒134-0088 東京都江戸川区西葛西６丁目１５?１２", "no": 201, "auxiliary_storage_symbol_char_f": null }, "geometry": { "type": "Point", "coordinates": [ 139.861348099999987, 35.6642593 ] } },
{ "type": "Feature", "properties": { "fid": 202, "id": 202, "name": "ファミリーマート 静岡パルシェ店", "rename": null, "lon": 138.38874, "lat": 34.972168, "address": "日本、〒420-0851 静岡県静岡市葵区黒金町４９", "no": 202, "auxiliary_storage_symbol_char_f": null }, "geometry": { "type": "Point", "coordinates": [ 138.38874, 34.972168 ] } },
{ "type": "Feature", "properties": { "fid": 203, "id": 203, "name": "ファミリーマート 磐田駅前店", "rename": null, "lon": 137.8514904, "lat": 34.7103273, "address": "日本、〒438-0078 静岡県磐田市中泉６２７?１", "no": 203, "auxiliary_storage_symbol_char_f": null }, "geometry": { "type": "Point", "coordinates": [ 137.851490399999989, 34.7103273 ] } },
{ "type": "Feature", "properties": { "fid": 204, "id": 204, "name": "ファミリーマート 御池山ノ内店", "rename": null, "lon": 135.723325, "lat": 35.0105799, "address": "日本、〒615-0092 京都府京都市右京区山ノ内宮脇町１８?１", "no": 204, "auxiliary_storage_symbol_char_f": null }, "geometry": { "type": "Point", "coordinates": [ 135.723325, 35.0105799 ] } },
{ "type": "Feature", "properties": { "fid": 205, "id": 205, "name": "ファミリーマート 玉城西町店", "rename": null, "lon": 127.670632, "lat": 26.213094, "address": "日本、〒900-0036 沖縄県那覇市西２丁目３?１", "no": 205, "auxiliary_storage_symbol_char_f": null }, "geometry": { "type": "Point", "coordinates": [ 127.670632, 26.213094 ] } },
{ "type": "Feature", "properties": { "fid": 206, "id": 206, "name": "ファミリーマート 国際通り中央店", "rename": null, "lon": 127.685698, "lat": 26.215687, "address": "日本、〒900-0013 沖縄県那覇市牧志１丁目２?２４", "no": 206, "auxiliary_storage_symbol_char_f": null }, "geometry": { "type": "Point", "coordinates": [ 127.685698, 26.215687 ] } },
{ "type": "Feature", "properties": { "fid": 207, "id": 207, "name": "ファミリーマート ＲＥＸＡ ＲＹＵＢＯ店", "rename": "ファミリーマート 国際通り入口店", "lon": 127.6809127, "lat": 26.2137109, "address": "日本、〒900-0014 沖縄県那覇市松尾１丁目１?２", "no": 207, "auxiliary_storage_symbol_char_f": null }, "geometry": { "type": "Point", "coordinates": [ 127.6809127, 26.2137109 ] } },
{ "type": "Feature", "properties": { "fid": 208, "id": 208, "name": "ファミリーマート 県立芸大前店", "rename": null, "lon": 127.7197092, "lat": 26.220069, "address": "日本、〒903-0812 沖縄県那覇市首里当蔵町２丁目 当蔵（首里公民館向け）", "no": 208, "auxiliary_storage_symbol_char_f": null }, "geometry": { "type": "Point", "coordinates": [ 127.7197092, 26.220069 ] } },
{ "type": "Feature", "properties": { "fid": 209, "id": 209, "name": "ファミリーマート 那覇空港ターミナル店", "rename": null, "lon": 127.6510357, "lat": 26.2065434, "address": "日本、〒901-0142 沖縄県那覇市鏡水１５０ 1F到着ロビ", "no": 209, "auxiliary_storage_symbol_char_f": null }, "geometry": { "type": "Point", "coordinates": [ 127.6510357, 26.2065434 ] } },
{ "type": "Feature", "properties": { "fid": 210, "id": 210, "name": "ファミリーマート 千日前通なんば店", "rename": null, "lon": 135.5019862, "lat": 34.6668433, "address": "日本、〒542-0076 大阪府大阪市中央区難波３丁目４?１６ ECS第32ビル", "no": 210, "auxiliary_storage_symbol_char_f": null }, "geometry": { "type": "Point", "coordinates": [ 135.5019862, 34.6668433 ] } },
{ "type": "Feature", "properties": { "fid": 211, "id": 211, "name": "ファミリーマート なんば駅北１号店", "rename": null, "lon": 135.5006357, "lat": 34.666858, "address": "日本、〒542-0076 大阪府大阪市中央区難波３丁目５?１１ 東亜ビル 402号", "no": 211, "auxiliary_storage_symbol_char_f": null }, "geometry": { "type": "Point", "coordinates": [ 135.5006357, 34.666858 ] } },
{ "type": "Feature", "properties": { "fid": 212, "id": 212, "name": "ファミリーマート 吹田千里山西店", "rename": null, "lon": 135.497289, "lat": 34.778691, "address": "日本、〒565-0851 大阪府吹田市千里山西４丁目３８?１０", "no": 212, "auxiliary_storage_symbol_char_f": null }, "geometry": { "type": "Point", "coordinates": [ 135.497289, 34.778691 ] } },
{ "type": "Feature", "properties": { "fid": 213, "id": 213, "name": "ファミリーマート 豊中長興寺店", "rename": null, "lon": 135.474691, "lat": 34.775083, "address": "日本、〒561-0874 大阪府豊中市長興寺南１丁目３?８", "no": 213, "auxiliary_storage_symbol_char_f": null }, "geometry": { "type": "Point", "coordinates": [ 135.474691, 34.775083 ] } },
{ "type": "Feature", "properties": { "fid": 214, "id": 214, "name": "ファミリーマート 天神川高辻店", "rename": null, "lon": 135.7162981, "lat": 35.001714, "address": "日本、〒615-0056 京都府京都市右京区西院西貝川町６１?６１", "no": 214, "auxiliary_storage_symbol_char_f": null }, "geometry": { "type": "Point", "coordinates": [ 135.716298099999989, 35.001714 ] } },
{ "type": "Feature", "properties": { "fid": 215, "id": 215, "name": "ファミリーマート 京田辺同志社店", "rename": null, "lon": 135.7719612, "lat": 34.8037821, "address": "日本、〒610-0332 京都府京田辺市興戸南鉾立９７?１", "no": 215, "auxiliary_storage_symbol_char_f": null }, "geometry": { "type": "Point", "coordinates": [ 135.7719612, 34.8037821 ] } },
{ "type": "Feature", "properties": { "fid": 216, "id": 216, "name": "ファミリーマート みなと元町駅前店", "rename": null, "lon": 135.1831457, "lat": 34.6855302, "address": "日本、〒650-0022 兵庫県神戸市中央区元町通５丁目１?１", "no": 216, "auxiliary_storage_symbol_char_f": null }, "geometry": { "type": "Point", "coordinates": [ 135.183145700000011, 34.6855302 ] } },
{ "type": "Feature", "properties": { "fid": 217, "id": 217, "name": "ファミリーマート 神崎川駅東店", "rename": null, "lon": 135.4734702, "lat": 34.7321879, "address": "日本、〒532-0033 大阪府大阪市淀川区新高６丁目１４?14-2F", "no": 217, "auxiliary_storage_symbol_char_f": null }, "geometry": { "type": "Point", "coordinates": [ 135.4734702, 34.7321879 ] } },
{ "type": "Feature", "properties": { "fid": 218, "id": 218, "name": "ファミリーマート 阪神なるお駅前店", "rename": null, "lon": 135.370771, "lat": 34.719245, "address": "日本、〒663-8184 兵庫県西宮市鳴尾町３丁目２?１", "no": 218, "auxiliary_storage_symbol_char_f": null }, "geometry": { "type": "Point", "coordinates": [ 135.370771, 34.719245 ] } },
{ "type": "Feature", "properties": { "fid": 219, "id": 219, "name": "ファミリーマート 名鉄名古屋駅上りホーム店", "rename": null, "lon": 136.8841522, "lat": 35.1698008, "address": "日本、〒450-0002 愛知県名古屋市中村区名駅１丁目２?１ 名鉄名古屋駅下りホーム", "no": 219, "auxiliary_storage_symbol_char_f": null }, "geometry": { "type": "Point", "coordinates": [ 136.884152199999988, 35.1698008 ] } },
{ "type": "Feature", "properties": { "fid": 220, "id": 220, "name": "ファミリーマート 豊田市駅店", "rename": null, "lon": 137.156296, "lat": 35.087252, "address": "日本、〒471-0026 愛知県豊田市若宮町１丁目３５", "no": 220, "auxiliary_storage_symbol_char_f": null }, "geometry": { "type": "Point", "coordinates": [ 137.156296, 35.087252 ] } },
{ "type": "Feature", "properties": { "fid": 221, "id": 221, "name": "ファミリーマート 赤池駅前店", "rename": null, "lon": 137.0186836, "lat": 35.1207277, "address": "日本、〒470-0125 愛知県日進市赤池１丁目２８１３", "no": 221, "auxiliary_storage_symbol_char_f": null }, "geometry": { "type": "Point", "coordinates": [ 137.0186836, 35.1207277 ] } },
{ "type": "Feature", "properties": { "fid": 222, "id": 222, "name": "ファミリーマート 名鉄金山駅改札内店", "rename": null, "lon": 136.9017296, "lat": 35.142608, "address": "日本、〒456-0001 愛知県名古屋市熱田区金山町１丁目１?１８", "no": 222, "auxiliary_storage_symbol_char_f": null }, "geometry": { "type": "Point", "coordinates": [ 136.90172960000001, 35.142608 ] } },
{ "type": "Feature", "properties": { "fid": 223, "id": 223, "name": "ファミリーマート?Estacio犬山駅店", "rename": null, "lon": 136.9453398, "lat": 35.3805025, "address": "日本、〒484-0081 愛知県犬山市犬山富士見町 犬山富士見町14 エスタシオン犬山 1F", "no": 223, "auxiliary_storage_symbol_char_f": null }, "geometry": { "type": "Point", "coordinates": [ 136.9453398, 35.3805025 ] } },
{ "type": "Feature", "properties": { "fid": 224, "id": 224, "name": "ファミリーマート 名鉄大曽根駅店", "rename": null, "lon": 136.9369501, "lat": 35.1919986, "address": "日本、〒461-0048 愛知県名古屋市東区矢田南５丁目２?６", "no": 224, "auxiliary_storage_symbol_char_f": null }, "geometry": { "type": "Point", "coordinates": [ 136.9369501, 35.1919986 ] } },
{ "type": "Feature", "properties": { "fid": 225, "id": 225, "name": "ファミリーマート 博多駅筑紫口店", "rename": null, "lon": 130.4221322, "lat": 33.5892879, "address": "日本、〒812-0012 福岡県福岡市博多区博多駅中央街５?１２", "no": 225, "auxiliary_storage_symbol_char_f": null }, "geometry": { "type": "Point", "coordinates": [ 130.4221322, 33.5892879 ] } },
{ "type": "Feature", "properties": { "fid": 226, "id": 226, "name": "ファミリーマート ＪＲ九大学研都市駅店", "rename": null, "lon": 130.2595094, "lat": 33.5781407, "address": "日本、〒819-0379 福岡県福岡市西区北原１丁目１?３", "no": 226, "auxiliary_storage_symbol_char_f": null }, "geometry": { "type": "Point", "coordinates": [ 130.259509400000013, 33.5781407 ] } },
{ "type": "Feature", "properties": { "fid": 227, "id": 227, "name": "ファミリーマート 螢茶屋店", "rename": null, "lon": 129.8938299, "lat": 32.7514702, "address": "日本、〒850-0013 長崎県長崎市中川２丁目１４?２６ NEビル", "no": 227, "auxiliary_storage_symbol_char_f": null }, "geometry": { "type": "Point", "coordinates": [ 129.893829899999986, 32.7514702 ] } },
{ "type": "Feature", "properties": { "fid": 228, "id": 228, "name": "ファミリーマート 長崎築町店", "rename": null, "lon": 129.8766014, "lat": 32.7454669, "address": "日本、〒850-0877 長崎県長崎市築町４?１５", "no": 228, "auxiliary_storage_symbol_char_f": null }, "geometry": { "type": "Point", "coordinates": [ 129.8766014, 32.7454669 ] } },
{ "type": "Feature", "properties": { "fid": 229, "id": 229, "name": "ファミリーマート ＪＲ浦上駅店", "rename": null, "lon": 129.8637318, "lat": 32.7655674, "address": "日本、〒852-8108 長崎県長崎市川口町１?５０", "no": 229, "auxiliary_storage_symbol_char_f": null }, "geometry": { "type": "Point", "coordinates": [ 129.863731800000011, 32.7655674 ] } },
{ "type": "Feature", "properties": { "fid": 230, "id": 230, "name": "ファミリーマート ＪＲ鳥栖駅店", "rename": null, "lon": 130.519487, "lat": 33.374066, "address": "日本、〒841-0034 佐賀県鳥栖市京町７０９", "no": 230, "auxiliary_storage_symbol_char_f": null }, "geometry": { "type": "Point", "coordinates": [ 130.519487, 33.374066 ] } },
{ "type": "Feature", "properties": { "fid": 231, "id": 231, "name": "ファミリーマート 小倉駅南店", "rename": null, "lon": 130.8806077, "lat": 33.8844031, "address": "日本、〒802-0006 福岡県北九州市小倉北区魚町１丁目４?２１ 魚町センタービル8階", "no": 231, "auxiliary_storage_symbol_char_f": null }, "geometry": { "type": "Point", "coordinates": [ 130.880607700000013, 33.8844031 ] } },
{ "type": "Feature", "properties": { "fid": 232, "id": 232, "name": "ファミリーマート 広島堺町店", "rename": null, "lon": 132.44659, "lat": 34.394585, "address": "日本、〒730-0853 広島県広島市中区堺町１丁目５?１７", "no": 232, "auxiliary_storage_symbol_char_f": null }, "geometry": { "type": "Point", "coordinates": [ 132.44659, 34.394585 ] } },
{ "type": "Feature", "properties": { "fid": 233, "id": 233, "name": "ファミリーマート 広島中央通り店", "rename": null, "lon": 132.4622092, "lat": 34.3902252, "address": "日本、〒730-0029 広島県広島市中区三川町２?８", "no": 233, "auxiliary_storage_symbol_char_f": null }, "geometry": { "type": "Point", "coordinates": [ 132.4622092, 34.3902252 ] } },
{ "type": "Feature", "properties": { "fid": 234, "id": 234, "name": "ファミリーマート 広島金座街店", "rename": null, "lon": 132.462569, "lat": 34.392602, "address": "日本、〒730-0033 広島県広島市中区堀川町５?１１", "no": 234, "auxiliary_storage_symbol_char_f": null }, "geometry": { "type": "Point", "coordinates": [ 132.462569, 34.392602 ] } },
{ "type": "Feature", "properties": { "fid": 235, "id": 235, "name": "ファミリーマート 津山駅前店", "rename": null, "lon": 134.0032794, "lat": 35.055797, "address": "日本、〒708-0881 岡山県津山市南町１丁目２６?１", "no": 235, "auxiliary_storage_symbol_char_f": null }, "geometry": { "type": "Point", "coordinates": [ 134.0032794, 35.055797 ] } },
{ "type": "Feature", "properties": { "fid": 236, "id": 236, "name": "ファミリーマート 佐用町店", "rename": null, "lon": 134.3527561, "lat": 35.0027965, "address": "日本、〒679-5301 兵庫県佐用郡佐用町佐用１４０９", "no": 236, "auxiliary_storage_symbol_char_f": null }, "geometry": { "type": "Point", "coordinates": [ 134.3527561, 35.0027965 ] } },
{ "type": "Feature", "properties": { "fid": 237, "id": 237, "name": "ファミリーマート 甲府駅前店", "rename": null, "lon": 138.5678798, "lat": 35.6658227, "address": "日本、〒400-0031 山梨県甲府市丸の内２丁目２?３ 第11浅川ビル 3F", "no": 237, "auxiliary_storage_symbol_char_f": null }, "geometry": { "type": "Point", "coordinates": [ 138.567879799999986, 35.6658227 ] } },
{ "type": "Feature", "properties": { "fid": 238, "id": 238, "name": "ファミリーマート セレオ甲府店", "rename": null, "lon": 138.5686605, "lat": 35.6668217, "address": "日本、〒400-0031 山梨県甲府市丸の内１丁目１?８", "no": 238, "auxiliary_storage_symbol_char_f": null }, "geometry": { "type": "Point", "coordinates": [ 138.5686605, 35.6668217 ] } },
{ "type": "Feature", "properties": { "fid": 239, "id": 239, "name": "ファミリーマート ＪＲ八王子駅北口店", "rename": null, "lon": 139.338507, "lat": 35.657858, "address": "日本、〒192-0082 東京都八王子市東町１１?１１?２", "no": 239, "auxiliary_storage_symbol_char_f": null }, "geometry": { "type": "Point", "coordinates": [ 139.338507, 35.657858 ] } },
{ "type": "Feature", "properties": { "fid": 240, "id": 240, "name": "ファミリーマート よろづや相模大野北口店", "rename": null, "lon": 139.4371194, "lat": 35.5324726, "address": "日本、〒252-0303 神奈川県相模原市南区相模大野３丁目９?１", "no": 240, "auxiliary_storage_symbol_char_f": null }, "geometry": { "type": "Point", "coordinates": [ 139.4371194, 35.5324726 ] } },
{ "type": "Feature", "properties": { "fid": 241, "id": 241, "name": "ファミリーマート 鎌倉駅東口店", "rename": null, "lon": 139.5508281, "lat": 35.3178839, "address": "日本、〒248-0006 神奈川県鎌倉市小町１丁目２?１６ 早見プラザ 3F", "no": 241, "auxiliary_storage_symbol_char_f": null }, "geometry": { "type": "Point", "coordinates": [ 139.5508281, 35.3178839 ] } },
{ "type": "Feature", "properties": { "fid": 242, "id": 242, "name": "ファミリーマート 横須賀汐入駅前店", "rename": null, "lon": 139.66249, "lat": 35.280486, "address": "日本、〒238-0041 神奈川県横須賀市本町３丁目３１", "no": 242, "auxiliary_storage_symbol_char_f": null }, "geometry": { "type": "Point", "coordinates": [ 139.66249, 35.280486 ] } },
{ "type": "Feature", "properties": { "fid": 243, "id": 243, "name": "ファミリーマート 上野六丁目店", "rename": null, "lon": 139.776282, "lat": 35.710196, "address": "日本、〒110-0005 東京都台東区上野６丁目１６?２２", "no": 243, "auxiliary_storage_symbol_char_f": null }, "geometry": { "type": "Point", "coordinates": [ 139.776282, 35.710196 ] } },
{ "type": "Feature", "properties": { "fid": 244, "id": 244, "name": "ファミリーマート 小田原駅東口店", "rename": null, "lon": 139.1564894, "lat": 35.2552605, "address": "日本、〒250-0011 神奈川県小田原市栄町１丁目２?１", "no": 244, "auxiliary_storage_symbol_char_f": null }, "geometry": { "type": "Point", "coordinates": [ 139.1564894, 35.2552605 ] } },
{ "type": "Feature", "properties": { "fid": 245, "id": 245, "name": "ファミリーマート 浜松駅南口店", "rename": null, "lon": 137.7360122, "lat": 34.7037687, "address": "日本、〒430-0926 静岡県浜松市中央区砂山町３２６?２ 砂山貸ビル 2階", "no": 245, "auxiliary_storage_symbol_char_f": null }, "geometry": { "type": "Point", "coordinates": [ 137.7360122, 34.7037687 ] } },
{ "type": "Feature", "properties": { "fid": 246, "id": 246, "name": "ファミリーマート 堺七道東町店", "rename": null, "lon": 135.4844002, "lat": 34.591777, "address": "日本、〒590-0913 大阪府堺市堺区七道東町１９２?２", "no": 246, "auxiliary_storage_symbol_char_f": null }, "geometry": { "type": "Point", "coordinates": [ 135.48440020000001, 34.591777 ] } },
{ "type": "Feature", "properties": { "fid": 247, "id": 247, "name": "ファミリーマート 難波一丁目店", "rename": null, "lon": 135.5006125, "lat": 34.6679011, "address": "日本、〒542-0076 大阪府大阪市中央区難波１丁目７?１０", "no": 247, "auxiliary_storage_symbol_char_f": null }, "geometry": { "type": "Point", "coordinates": [ 135.500612499999988, 34.6679011 ] } },
{ "type": "Feature", "properties": { "fid": 248, "id": 248, "name": "ファミリーマート ドーム前千代崎駅南店", "rename": null, "lon": 135.4792264, "lat": 34.6708014, "address": "日本、〒550-0023 大阪府大阪市西区千代崎３丁目北２?８", "no": 248, "auxiliary_storage_symbol_char_f": null }, "geometry": { "type": "Point", "coordinates": [ 135.479226399999988, 34.6708014 ] } },
{ "type": "Feature", "properties": { "fid": 249, "id": 249, "name": "ファミリーマート なかもず駅北口店", "rename": null, "lon": 135.5054081, "lat": 34.5563887, "address": "日本、〒591-8023 大阪府堺市北区中百舌鳥町２丁2?１０１", "no": 249, "auxiliary_storage_symbol_char_f": null }, "geometry": { "type": "Point", "coordinates": [ 135.505408100000011, 34.5563887 ] } },
{ "type": "Feature", "properties": { "fid": 250, "id": 250, "name": "ファミリーマート 西院清水町店", "rename": null, "lon": 135.722957, "lat": 34.99966, "address": "日本、〒615-0052 京都府京都市右京区西院清水町１", "no": 250, "auxiliary_storage_symbol_char_f": null }, "geometry": { "type": "Point", "coordinates": [ 135.722957, 34.99966 ] } },
{ "type": "Feature", "properties": { "fid": 251, "id": 251, "name": "ファミリーマート 天神橋四丁目店", "rename": null, "lon": 135.5122528, "lat": 34.7038258, "address": "日本、〒530-0041 大阪府大阪市北区天神橋４丁目６?３", "no": 251, "auxiliary_storage_symbol_char_f": null }, "geometry": { "type": "Point", "coordinates": [ 135.5122528, 34.7038258 ] } },
{ "type": "Feature", "properties": { "fid": 252, "id": 252, "name": "ファミリーマート 同心町店", "rename": null, "lon": 135.516644, "lat": 34.702679, "address": "日本、〒530-0035 大阪府大阪市北区同心２丁目１４?２２", "no": 252, "auxiliary_storage_symbol_char_f": null }, "geometry": { "type": "Point", "coordinates": [ 135.516644, 34.702679 ] } },
{ "type": "Feature", "properties": { "fid": 253, "id": 253, "name": "ファミリーマート 城東えなみ店", "rename": null, "lon": 135.536713, "lat": 34.705552, "address": "日本、〒536-0006 大阪府大阪市城東区野江２丁目４?９", "no": 253, "auxiliary_storage_symbol_char_f": null }, "geometry": { "type": "Point", "coordinates": [ 135.536713, 34.705552 ] } },
{ "type": "Feature", "properties": { "fid": 254, "id": 254, "name": "ファミリーマート 成育五丁目店", "rename": null, "lon": 135.546267, "lat": 34.7122, "address": "日本、〒536-0007 大阪府大阪市城東区成育５丁目９?１５", "no": 254, "auxiliary_storage_symbol_char_f": null }, "geometry": { "type": "Point", "coordinates": [ 135.546267, 34.7122 ] } },
{ "type": "Feature", "properties": { "fid": 255, "id": 255, "name": "ファミリーマート 大宮二丁目店", "rename": null, "lon": 135.5458583, "lat": 34.724463, "address": "日本、〒535-0002 大阪府大阪市旭区大宮２丁目１５?７", "no": 255, "auxiliary_storage_symbol_char_f": null }, "geometry": { "type": "Point", "coordinates": [ 135.5458583, 34.724463 ] } },
{ "type": "Feature", "properties": { "fid": 256, "id": 256, "name": "ファミリーマート 高岡卸売市場前店", "rename": null, "lon": 137.004216, "lat": 36.728229, "address": "日本、〒933-0852 富山県高岡市下黒田８０３番地１", "no": 256, "auxiliary_storage_symbol_char_f": null }, "geometry": { "type": "Point", "coordinates": [ 137.004216, 36.728229 ] } },
{ "type": "Feature", "properties": { "fid": 257, "id": 257, "name": "ファミリーマート 新潟第一ホテル店", "rename": null, "lon": 139.063098, "lat": 37.913968, "address": "日本、〒950-0086 新潟県新潟市中央区花園１丁目３?１２", "no": 257, "auxiliary_storage_symbol_char_f": null }, "geometry": { "type": "Point", "coordinates": [ 139.063098, 37.913968 ] } },
{ "type": "Feature", "properties": { "fid": 258, "id": 258, "name": "ファミリーマート 新庄若葉町店", "rename": null, "lon": 140.303983, "lat": 38.76003, "address": "日本、〒996-0025 山形県新庄市若葉町６?１１", "no": 258, "auxiliary_storage_symbol_char_f": null }, "geometry": { "type": "Point", "coordinates": [ 140.303983, 38.76003 ] } },
{ "type": "Feature", "properties": { "fid": 259, "id": 259, "name": "ファミリーマート 秋田広面屋敷田店", "rename": null, "lon": 140.140197, "lat": 39.717673, "address": "日本、〒010-0041 秋田県秋田市広面屋敷田 ３１６番地", "no": 259, "auxiliary_storage_symbol_char_f": null }, "geometry": { "type": "Point", "coordinates": [ 140.140197, 39.717673 ] } },
{ "type": "Feature", "properties": { "fid": 260, "id": 260, "name": "ファミリーマート 青森駅前店", "rename": null, "lon": 140.735667, "lat": 40.828243, "address": "日本、〒030-0801 青森県青森市新町１丁目１?２０", "no": 260, "auxiliary_storage_symbol_char_f": null }, "geometry": { "type": "Point", "coordinates": [ 140.735667, 40.828243 ] } },
{ "type": "Feature", "properties": { "fid": 261, "id": 261, "name": "ファミリーマート 弘前アプリーズ店", "rename": null, "lon": 140.4847905, "lat": 40.599349, "address": "日本、〒036-8096 青森県弘前市表町２?１１", "no": 261, "auxiliary_storage_symbol_char_f": null }, "geometry": { "type": "Point", "coordinates": [ 140.4847905, 40.599349 ] } },
{ "type": "Feature", "properties": { "fid": 262, "id": 262, "name": "ファミリーマート 水沢寺小路店", "rename": null, "lon": 141.145379, "lat": 39.141814, "address": "日本、〒023-0811 岩手県奥州市水沢寺小路２８", "no": 262, "auxiliary_storage_symbol_char_f": null }, "geometry": { "type": "Point", "coordinates": [ 141.145379, 39.141814 ] } },
{ "type": "Feature", "properties": { "fid": 263, "id": 263, "name": "ファミリーマート 仙台東口店", "rename": null, "lon": 140.884322, "lat": 38.2608113, "address": "日本、〒983-0852 宮城県仙台市宮城野区榴岡２丁目１?１５ 大内ビル2F", "no": 263, "auxiliary_storage_symbol_char_f": null }, "geometry": { "type": "Point", "coordinates": [ 140.884322, 38.2608113 ] } },
{ "type": "Feature", "properties": { "fid": 264, "id": 264, "name": "ファミリーマート 宇都宮駅東口店", "rename": null, "lon": 139.9005684, "lat": 36.5577692, "address": "日本、〒321-0953 栃木県宇都宮市東宿郷２丁目２?１", "no": 264, "auxiliary_storage_symbol_char_f": null }, "geometry": { "type": "Point", "coordinates": [ 139.9005684, 36.5577692 ] } },
{ "type": "Feature", "properties": { "fid": 265, "id": 265, "name": "ファミリーマート 蕨駅東口店", "rename": null, "lon": 139.6904389, "lat": 35.8290569, "address": "日本、〒333-0851 埼玉県川口市芝新町３?１", "no": 265, "auxiliary_storage_symbol_char_f": null }, "geometry": { "type": "Point", "coordinates": [ 139.6904389, 35.8290569 ] } },
{ "type": "Feature", "properties": { "fid": 266, "id": 266, "name": "ファミリーマート わらび西口店", "rename": null, "lon": 139.68814, "lat": 35.827317, "address": "日本、〒335-0004 埼玉県蕨市中央３丁目３?１６", "no": 266, "auxiliary_storage_symbol_char_f": null }, "geometry": { "type": "Point", "coordinates": [ 139.68814, 35.827317 ] } },
{ "type": "Feature", "properties": { "fid": 267, "id": 267, "name": "ファミリーマート エステック情報ビル店", "rename": null, "lon": 139.695834, "lat": 35.69039, "address": "日本、〒160-0023 東京都新宿区西新宿１丁目２４?１", "no": 267, "auxiliary_storage_symbol_char_f": null }, "geometry": { "type": "Point", "coordinates": [ 139.695834, 35.69039 ] } },
{ "type": "Feature", "properties": { "fid": 268, "id": 268, "name": "ファミリーマート 西新宿五丁目店", "rename": null, "lon": 139.6858273, "lat": 35.690581, "address": "日本、〒160-0023 東京都新宿区西新宿５丁目１０?１０番１４号 小野木ビル西新宿", "no": 268, "auxiliary_storage_symbol_char_f": null }, "geometry": { "type": "Point", "coordinates": [ 139.6858273, 35.690581 ] } },
{ "type": "Feature", "properties": { "fid": 269, "id": 269, "name": "ファミリーマート 両国四丁目店", "rename": null, "lon": 139.7954565, "lat": 35.694268, "address": "日本、〒130-0026 東京都墨田区両国４丁目２７?６", "no": 269, "auxiliary_storage_symbol_char_f": null }, "geometry": { "type": "Point", "coordinates": [ 139.7954565, 35.694268 ] } },
{ "type": "Feature", "properties": { "fid": 270, "id": 270, "name": "ファミリーマート 鹿嶋神宮前店", "rename": null, "lon": 140.62382, "lat": 35.967136, "address": "日本、〒314-0032 茨城県鹿嶋市宮下３丁目５?３", "no": 270, "auxiliary_storage_symbol_char_f": null }, "geometry": { "type": "Point", "coordinates": [ 140.62382, 35.967136 ] } },
{ "type": "Feature", "properties": { "fid": 271, "id": 271, "name": "ファミリーマート ＴＸ守谷駅店", "rename": null, "lon": 139.9921725, "lat": 35.9505423, "address": "日本、〒302-0115 茨城県守谷市中央２丁目 守谷市中央2-18-3 守谷駅", "no": 271, "auxiliary_storage_symbol_char_f": null }, "geometry": { "type": "Point", "coordinates": [ 139.9921725, 35.9505423 ] } },
{ "type": "Feature", "properties": { "fid": 272, "id": 272, "name": "ファミリーマート 菊名駅東口店", "rename": null, "lon": 139.6324028, "lat": 35.5097646, "address": "日本、〒222-0011 神奈川県横浜市港北区菊名４丁目３?２１", "no": 272, "auxiliary_storage_symbol_char_f": null }, "geometry": { "type": "Point", "coordinates": [ 139.6324028, 35.5097646 ] } },
{ "type": "Feature", "properties": { "fid": 273, "id": 273, "name": "ファミリーマート 沼津駅北口店", "rename": null, "lon": 138.8583992, "lat": 35.1042812, "address": "日本、〒410-0056 静岡県沼津市高島町２?６", "no": 273, "auxiliary_storage_symbol_char_f": null }, "geometry": { "type": "Point", "coordinates": [ 138.8583992, 35.1042812 ] } },
{ "type": "Feature", "properties": { "fid": 274, "id": 274, "name": "ファミリーマート 岐阜駅北口店", "rename": null, "lon": 136.7557, "lat": 35.4111125, "address": "日本、〒500-8844 岐阜県岐阜市吉野町６丁目６?１", "no": 274, "auxiliary_storage_symbol_char_f": null }, "geometry": { "type": "Point", "coordinates": [ 136.7557, 35.4111125 ] } },
{ "type": "Feature", "properties": { "fid": 275, "id": 275, "name": "ファミリーマート 岐阜神田町店", "rename": null, "lon": 136.759684, "lat": 35.417094, "address": "日本、〒500-8833 岐阜県岐阜市神田町６丁目１２", "no": 275, "auxiliary_storage_symbol_char_f": null }, "geometry": { "type": "Point", "coordinates": [ 136.759684, 35.417094 ] } },
{ "type": "Feature", "properties": { "fid": 276, "id": 276, "name": "ファミリーマート 名鉄岐阜駅北店", "rename": null, "lon": 136.759951, "lat": 35.412816, "address": "日本、〒500-8833 岐阜県岐阜市神田町８丁目5番地 ダイワロイネットホテル岐阜", "no": 276, "auxiliary_storage_symbol_char_f": null }, "geometry": { "type": "Point", "coordinates": [ 136.759951, 35.412816 ] } },
{ "type": "Feature", "properties": { "fid": 277, "id": 277, "name": "ファミリーマート 高茶屋小森店", "rename": null, "lon": 136.5193, "lat": 34.669168, "address": "日本、〒514-0304 三重県津市雲出本郷町１７９９?３", "no": 277, "auxiliary_storage_symbol_char_f": null }, "geometry": { "type": "Point", "coordinates": [ 136.5193, 34.669168 ] } },
{ "type": "Feature", "properties": { "fid": 278, "id": 278, "name": "ファミリーマート 名神吹田インター前店", "rename": null, "lon": 135.5490891, "lat": 34.8077251, "address": "日本、〒565-0801 大阪府吹田市青葉丘北７?３２", "no": 278, "auxiliary_storage_symbol_char_f": null }, "geometry": { "type": "Point", "coordinates": [ 135.5490891, 34.8077251 ] } },
{ "type": "Feature", "properties": { "fid": 279, "id": 279, "name": "ファミリーマート 京都御池通天神店", "rename": null, "lon": 135.7346152, "lat": 35.0105718, "address": "日本、〒604-8424 京都府京都市中京区西ノ京樋ノ口町２", "no": 279, "auxiliary_storage_symbol_char_f": null }, "geometry": { "type": "Point", "coordinates": [ 135.7346152, 35.0105718 ] } },
{ "type": "Feature", "properties": { "fid": 280, "id": 280, "name": "ファミリーマート 金山駅南店", "rename": null, "lon": 136.9010322, "lat": 35.1416693, "address": "日本、〒456-0002 愛知県名古屋市熱田区金山町１丁目４?１", "no": 280, "auxiliary_storage_symbol_char_f": null }, "geometry": { "type": "Point", "coordinates": [ 136.9010322, 35.1416693 ] } },
{ "type": "Feature", "properties": { "fid": 281, "id": 281, "name": "ファミリーマート ルーセントタワー店", "rename": null, "lon": 136.88113, "lat": 35.174933, "address": "日本、〒451-0046 愛知県名古屋市西区牛島町６?１", "no": 281, "auxiliary_storage_symbol_char_f": null }, "geometry": { "type": "Point", "coordinates": [ 136.88113, 35.174933 ] } },
{ "type": "Feature", "properties": { "fid": 282, "id": 282, "name": "ファミリーマート 烏丸丸太町店", "rename": null, "lon": 135.7593048, "lat": 35.0171067, "address": "日本、〒604-0861 京都府京都市中京区烏丸通丸太町下る大倉町２０３", "no": 282, "auxiliary_storage_symbol_char_f": null }, "geometry": { "type": "Point", "coordinates": [ 135.7593048, 35.0171067 ] } },
{ "type": "Feature", "properties": { "fid": 283, "id": 283, "name": "ファミリーマート 立川北駅店", "rename": null, "lon": 139.4125745, "lat": 35.699114, "address": "日本、〒190-0012 東京都立川市曙町２丁目４ 立川北駅", "no": 283, "auxiliary_storage_symbol_char_f": null }, "geometry": { "type": "Point", "coordinates": [ 139.4125745, 35.699114 ] } },
{ "type": "Feature", "properties": { "fid": 284, "id": 284, "name": "ファミリーマート 立川錦町店", "rename": null, "lon": 139.4171648, "lat": 35.6965561, "address": "日本、〒190-0022 東京都立川市錦町１丁目４?４ 立川サニーハイツ 303", "no": 284, "auxiliary_storage_symbol_char_f": null }, "geometry": { "type": "Point", "coordinates": [ 139.4171648, 35.6965561 ] } },
{ "type": "Feature", "properties": { "fid": 285, "id": 285, "name": "ファミリーマート 綾瀬西口店", "rename": null, "lon": 139.8230979, "lat": 35.7620209, "address": "日本、〒120-0005 東京都足立区綾瀬４丁目６?１３", "no": 285, "auxiliary_storage_symbol_char_f": null }, "geometry": { "type": "Point", "coordinates": [ 139.8230979, 35.7620209 ] } },
{ "type": "Feature", "properties": { "fid": 286, "id": 286, "name": "ファミリーマート 綾瀬駅前店", "rename": null, "lon": 139.8244787, "lat": 35.7624946, "address": "日本、〒120-0005 東京都足立区綾瀬３丁目２?１２", "no": 286, "auxiliary_storage_symbol_char_f": null }, "geometry": { "type": "Point", "coordinates": [ 139.824478699999986, 35.7624946 ] } },
{ "type": "Feature", "properties": { "fid": 287, "id": 287, "name": "ファミリーマート 下総中山駅南口店", "rename": null, "lon": 139.9433195, "lat": 35.7139923, "address": "日本、〒273-0035 千葉県船橋市本中山３丁目１４?２０", "no": 287, "auxiliary_storage_symbol_char_f": null }, "geometry": { "type": "Point", "coordinates": [ 139.9433195, 35.7139923 ] } },
{ "type": "Feature", "properties": { "fid": 288, "id": 288, "name": "ファミリーマート 平和島旧東海道店", "rename": null, "lon": 139.7361568, "lat": 35.577755, "address": "日本、〒143-0011 東京都大田区大森本町２丁目３１?１４", "no": 288, "auxiliary_storage_symbol_char_f": null }, "geometry": { "type": "Point", "coordinates": [ 139.7361568, 35.577755 ] } },
{ "type": "Feature", "properties": { "fid": 289, "id": 289, "name": "ファミリーマート 京急川崎駅前店", "rename": null, "lon": 139.6996798, "lat": 35.5318691, "address": "日本、〒210-0007 神奈川県川崎市川崎区駅前本町１０?５", "no": 289, "auxiliary_storage_symbol_char_f": null }, "geometry": { "type": "Point", "coordinates": [ 139.699679800000013, 35.5318691 ] } },
{ "type": "Feature", "properties": { "fid": 290, "id": 290, "name": "ファミリーマート 磐田駅南口店", "rename": null, "lon": 137.852288, "lat": 34.70886, "address": "日本、〒438-0078 静岡県磐田市中泉２２７０?１３", "no": 290, "auxiliary_storage_symbol_char_f": null }, "geometry": { "type": "Point", "coordinates": [ 137.852288, 34.70886 ] } },
{ "type": "Feature", "properties": { "fid": 291, "id": 291, "name": "ファミリーマート 岡崎駅前店", "rename": null, "lon": 137.1583763, "lat": 34.9256169, "address": "日本、〒444-0813 愛知県岡崎市羽根町東荒子４２?３", "no": 291, "auxiliary_storage_symbol_char_f": null }, "geometry": { "type": "Point", "coordinates": [ 137.158376299999986, 34.9256169 ] } },
{ "type": "Feature", "properties": { "fid": 292, "id": 292, "name": "ファミリーマート ホテルアソシア豊橋店", "rename": null, "lon": 137.3825084, "lat": 34.7632427, "address": "日本、〒440-0075 愛知県豊橋市花田町西宿無番地", "no": 292, "auxiliary_storage_symbol_char_f": null }, "geometry": { "type": "Point", "coordinates": [ 137.3825084, 34.7632427 ] } },
{ "type": "Feature", "properties": { "fid": 293, "id": 293, "name": "ファミリーマート 浜松アクトシティ店", "rename": null, "lon": 137.7377468, "lat": 34.7059212, "address": "日本、〒430-0928 静岡県浜松市中央区板屋町浜松アクトタワー", "no": 293, "auxiliary_storage_symbol_char_f": null }, "geometry": { "type": "Point", "coordinates": [ 137.7377468, 34.7059212 ] } },
{ "type": "Feature", "properties": { "fid": 294, "id": 294, "name": "ファミリーマート 平塚駅北口店", "rename": null, "lon": 139.349216, "lat": 35.3289789, "address": "日本、〒254-0043 神奈川県平塚市紅谷町４?３", "no": 294, "auxiliary_storage_symbol_char_f": null }, "geometry": { "type": "Point", "coordinates": [ 139.349216, 35.3289789 ] } },
{ "type": "Feature", "properties": { "fid": 295, "id": 295, "name": "ファミリーマート 代官山駅前店", "rename": null, "lon": 139.7028785, "lat": 35.6476883, "address": "日本、〒150-0034 東京都渋谷区恵比寿西１丁目３５?１７ Gビル代官山01", "no": 295, "auxiliary_storage_symbol_char_f": null }, "geometry": { "type": "Point", "coordinates": [ 139.7028785, 35.6476883 ] } },
{ "type": "Feature", "properties": { "fid": 296, "id": 296, "name": "ファミリーマート 大船駅東口店", "rename": null, "lon": 139.531913, "lat": 35.3526298, "address": "日本、〒247-0056 神奈川県鎌倉市大船１丁目１０?１８", "no": 296, "auxiliary_storage_symbol_char_f": null }, "geometry": { "type": "Point", "coordinates": [ 139.531913, 35.3526298 ] } },
{ "type": "Feature", "properties": { "fid": 297, "id": 297, "name": "ファミリーマート 豊橋白河町店", "rename": null, "lon": 137.3807951, "lat": 34.7605682, "address": "日本、〒441-8021 愛知県豊橋市白河町８４", "no": 297, "auxiliary_storage_symbol_char_f": null }, "geometry": { "type": "Point", "coordinates": [ 137.3807951, 34.7605682 ] } },
{ "type": "Feature", "properties": { "fid": 298, "id": 298, "name": "ファミリーマート 同志社大学店", "rename": null, "lon": 135.7607369, "lat": 35.0297275, "address": "日本、〒602-0892 京都府京都市上京区新北小路町６０３", "no": 298, "auxiliary_storage_symbol_char_f": null }, "geometry": { "type": "Point", "coordinates": [ 135.760736900000012, 35.0297275 ] } },
{ "type": "Feature", "properties": { "fid": 299, "id": 299, "name": "ファミリーマート 深草龍大前店", "rename": null, "lon": 135.7684504, "lat": 34.9618053, "address": "日本、〒612-0022 京都府京都市伏見区深草綿森町３０?１ メゾンドゥスール", "no": 299, "auxiliary_storage_symbol_char_f": null }, "geometry": { "type": "Point", "coordinates": [ 135.7684504, 34.9618053 ] } },
{ "type": "Feature", "properties": { "fid": 300, "id": 300, "name": "ファミリーマート 瑞光一丁目店", "rename": null, "lon": 135.534525, "lat": 34.748576, "address": "日本、〒533-0005 大阪府大阪市東淀川区瑞光１丁目３?１５", "no": 300, "auxiliary_storage_symbol_char_f": null }, "geometry": { "type": "Point", "coordinates": [ 135.534525, 34.748576 ] } },
{ "type": "Feature", "properties": { "fid": 301, "id": 301, "name": "ファミリーマート 八尾南駅中央店", "rename": null, "lon": 135.582588, "lat": 34.597394, "address": "日本、〒581-0038 大阪府八尾市若林町１丁目 八尾南駅", "no": 301, "auxiliary_storage_symbol_char_f": null }, "geometry": { "type": "Point", "coordinates": [ 135.582588, 34.597394 ] } },
{ "type": "Feature", "properties": { "fid": 302, "id": 302, "name": "ファミリーマート 大昌千日前店", "rename": null, "lon": 135.5040096, "lat": 34.6663582, "address": "日本、〒542-0074 大阪府大阪市中央区千日前２丁目８?１ 大昌", "no": 302, "auxiliary_storage_symbol_char_f": null }, "geometry": { "type": "Point", "coordinates": [ 135.504009599999989, 34.6663582 ] } },
{ "type": "Feature", "properties": { "fid": 303, "id": 303, "name": "ファミリーマート 小路駅東店", "rename": null, "lon": 135.5577962, "lat": 34.6615386, "address": "日本、〒544-0003 大阪府大阪市生野区小路東２丁目１６?２", "no": 303, "auxiliary_storage_symbol_char_f": null }, "geometry": { "type": "Point", "coordinates": [ 135.557796200000013, 34.6615386 ] } },
{ "type": "Feature", "properties": { "fid": 304, "id": 304, "name": "ファミリーマート 室町仏光寺店", "rename": null, "lon": 135.758001, "lat": 35.001434, "address": "日本、〒600-8432 京都府京都市下京区糸屋町２３０", "no": 304, "auxiliary_storage_symbol_char_f": null }, "geometry": { "type": "Point", "coordinates": [ 135.758001, 35.001434 ] } },
{ "type": "Feature", "properties": { "fid": 305, "id": 305, "name": "ファミリーマート 桃山御香宮前店", "rename": null, "lon": 135.769196, "lat": 34.9330062, "address": "日本、〒612-8037 京都府京都市伏見区桃山町鍋島６?６", "no": 305, "auxiliary_storage_symbol_char_f": null }, "geometry": { "type": "Point", "coordinates": [ 135.769196, 34.9330062 ] } },
{ "type": "Feature", "properties": { "fid": 306, "id": 306, "name": "ファミリーマート 近鉄向島駅改札内橋上店", "rename": null, "lon": 135.7695173, "lat": 34.9149875, "address": "日本、〒612-8155 京都府京都市伏見区向島東定請１１", "no": 306, "auxiliary_storage_symbol_char_f": null }, "geometry": { "type": "Point", "coordinates": [ 135.7695173, 34.9149875 ] } },
{ "type": "Feature", "properties": { "fid": 307, "id": 307, "name": "ファミリーマート 花博記念公園前店", "rename": null, "lon": 135.5672901, "lat": 34.7175112, "address": "日本、〒535-0022 大阪府大阪市旭区新森６丁目１１?２７ 3F", "no": 307, "auxiliary_storage_symbol_char_f": null }, "geometry": { "type": "Point", "coordinates": [ 135.5672901, 34.7175112 ] } },
{ "type": "Feature", "properties": { "fid": 308, "id": 308, "name": "ファミリーマート 横堤四丁目店", "rename": null, "lon": 135.568404, "lat": 34.707129, "address": "日本、〒538-0052 大阪府大阪市鶴見区横堤４丁目２０?５", "no": 308, "auxiliary_storage_symbol_char_f": null }, "geometry": { "type": "Point", "coordinates": [ 135.568404, 34.707129 ] } },
{ "type": "Feature", "properties": { "fid": 309, "id": 309, "name": "ファミリーマート 城東今福東店", "rename": null, "lon": 135.5592476, "lat": 34.701607, "address": "日本、〒536-0002 大阪府大阪市城東区今福東１丁目１０?２２", "no": 309, "auxiliary_storage_symbol_char_f": null }, "geometry": { "type": "Point", "coordinates": [ 135.5592476, 34.701607 ] } },
{ "type": "Feature", "properties": { "fid": 310, "id": 310, "name": "ファミリーマート 四条富小路店", "rename": null, "lon": 135.7647243, "lat": 35.0034954, "address": "日本、〒600-8005 京都府京都市下京区立売東町 四条通麩屋町西入立売東町14", "no": 310, "auxiliary_storage_symbol_char_f": null }, "geometry": { "type": "Point", "coordinates": [ 135.764724300000012, 35.0034954 ] } },